<?xml version="1.0" encoding="UTF-8"?>
<!-- written by WED 2.4.0r2 -->
<doc>
  <objects>
    <object class="WED_Group" id="9" parent_id="5">
      <children>
        <child id="770"/>
        <child id="773"/>
        <child id="776"/>
        <child id="787"/>
        <child id="793"/>
        <child id="796"/>
        <child id="801"/>
        <child id="805"/>
        <child id="809"/>
        <child id="813"/>
        <child id="816"/>
        <child id="821"/>
        <child id="826"/>
        <child id="830"/>
        <child id="835"/>
        <child id="839"/>
        <child id="843"/>
        <child id="847"/>
        <child id="850"/>
        <child id="853"/>
        <child id="856"/>
        <child id="859"/>
        <child id="863"/>
        <child id="873"/>
        <child id="877"/>
        <child id="886"/>
        <child id="889"/>
        <child id="892"/>
        <child id="895"/>
        <child id="899"/>
        <child id="903"/>
        <child id="907"/>
        <child id="911"/>
        <child id="915"/>
        <child id="919"/>
        <child id="923"/>
        <child id="926"/>
        <child id="935"/>
        <child id="939"/>
        <child id="944"/>
        <child id="948"/>
        <child id="951"/>
        <child id="966"/>
        <child id="972"/>
        <child id="983"/>
        <child id="989"/>
        <child id="1002"/>
        <child id="1005"/>
        <child id="1008"/>
        <child id="1015"/>
        <child id="1034"/>
        <child id="1044"/>
        <child id="1054"/>
      </children>
      <hierarchy name="Markings" locked="0" hidden="0"/>
    </object>
    <object class="WED_AirportNode" id="952" parent_id="951">
      <children/>
      <hierarchy name="unnamed entity" locked="0" hidden="0"/>
      <point latitude="39.621242170" longitude="-86.089267840" split="0" ctrl_latitude_lo="0.0" ctrl_longitude_lo="0.0" ctrl_latitude_hi="0.0" ctrl_longitude_hi="0.0"/>
      <markings>
        <marking value="Double Solid Yellow (Black)"/>
      </markings>
    </object>
    <object class="WED_AirportNode" id="65" parent_id="22">
      <children/>
      <hierarchy name="unnamed entity" locked="0" hidden="0"/>
      <point latitude="39.634238250" longitude="-86.089031540" split="1" ctrl_latitude_lo="0.000015190" ctrl_longitude_lo="0.000000830" ctrl_latitude_hi="-0.000003980" ctrl_longitude_hi="-0.000008280"/>
      <markings/>
    </object>
    <object class="WED_AirportChain" id="1008" parent_id="9">
      <children>
        <child id="1009"/>
        <child id="1010"/>
        <child id="1011"/>
        <child id="1012"/>
        <child id="1013"/>
        <child id="1014"/>
      </children>
      <hierarchy name="Ramp Lines" locked="0" hidden="0"/>
      <airport_chain closed="0"/>
    </object>
    <object class="WED_Root" id="1" parent_id="0">
      <children>
        <child id="2"/>
        <child id="3"/>
        <child id="4"/>
      </children>
      <hierarchy name="root"/>
    </object>
    <object class="WED_AirportChain" id="944" parent_id="9">
      <children>
        <child id="945"/>
        <child id="946"/>
        <child id="947"/>
      </children>
      <hierarchy name="Linear Feature 48" locked="0" hidden="0"/>
      <airport_chain closed="0"/>
    </object>
    <object class="WED_AirportChain" id="1054" parent_id="9">
      <children>
        <child id="1055"/>
        <child id="1056"/>
        <child id="1057"/>
        <child id="1058"/>
        <child id="1059"/>
        <child id="1060"/>
        <child id="1061"/>
      </children>
      <hierarchy name="Linear Feature 7" locked="0" hidden="0"/>
      <airport_chain closed="0"/>
    </object>
    <object class="WED_AirportNode" id="393" parent_id="389">
      <children/>
      <hierarchy name="unnamed entity" locked="0" hidden="0"/>
      <point latitude="39.632598330" longitude="-86.089384050" split="0" ctrl_latitude_lo="0.0" ctrl_longitude_lo="0.0" ctrl_latitude_hi="0.0" ctrl_longitude_hi="0.0"/>
      <markings/>
    </object>
    <object class="WED_Select" id="2" parent_id="1">
      <children/>
      <hierarchy name="selection"/>
      <selection>
        <sel id="561"/>
      </selection>
    </object>
    <object class="WED_ObjPlacement" id="3517" parent_id="1378">
      <children/>
      <hierarchy name="autogen_tree2.obj" locked="0" hidden="0"/>
      <point latitude="39.617671855" longitude="-86.090794041" heading="0.0"/>
      <obj_placement custom_msl="0" msl="0.0" resource="lib/g10/forests/autogen_tree2.obj" show_level="1 Default"/>
    </object>
    <object class="WED_ObjPlacement" id="1970" parent_id="1378">
      <children/>
      <hierarchy name="autogen_tree3.obj" locked="0" hidden="0"/>
      <point latitude="39.634102483" longitude="-86.090063516" heading="315.00"/>
      <obj_placement custom_msl="0" msl="0.0" resource="lib/g10/forests/autogen_tree3.obj" show_level="1 Default"/>
    </object>
    <object class="WED_KeyObjects" id="3" parent_id="1">
      <children/>
      <hierarchy name="choices"/>
      <keys>
        <key name="airport" id="5"/>
      </keys>
    </object>
    <object class="WED_AirportNode" id="387" parent_id="384">
      <children/>
      <hierarchy name="unnamed entity" locked="0" hidden="0"/>
      <point latitude="39.632529050" longitude="-86.089564820" split="0" ctrl_latitude_lo="-0.000002800" ctrl_longitude_lo="0.000035430" ctrl_latitude_hi="0.000002800" ctrl_longitude_hi="-0.000035430"/>
      <markings/>
    </object>
    <object class="WED_ObjPlacement" id="1463" parent_id="1378">
      <children/>
      <hierarchy name="car_static.obj" locked="0" hidden="0"/>
      <point latitude="39.634962711" longitude="-86.085134852" heading="265.35"/>
      <obj_placement custom_msl="0" msl="0.0" resource="lib/cars/car_static.obj" show_level="1 Default"/>
    </object>
    <object class="WED_Group" id="4" parent_id="1">
      <children>
        <child id="5"/>
        <child id="1327"/>
      </children>
      <hierarchy name="world" locked="0" hidden="0"/>
    </object>
    <object class="WED_Airport" id="5" parent_id="4">
      <children>
        <child id="6"/>
        <child id="7"/>
        <child id="8"/>
        <child id="9"/>
        <child id="10"/>
        <child id="11"/>
        <child id="12"/>
        <child id="13"/>
        <child id="14"/>
        <child id="15"/>
        <child id="16"/>
        <child id="17"/>
      </children>
      <hierarchy name="Indy South Greenwood" locked="0" hidden="0"/>
      <airport kind="Airport" elevation="249.6" has_atc="0" icao="KHFY" always_flatten="0" drive_on_left="0" scenery_id="-1"/>
      <meta_data>
        <meta_data_entry pair="city,Indianapolis"/>
        <meta_data_entry pair="country,United States"/>
        <meta_data_entry pair="datum_lat,39.627611111"/>
        <meta_data_entry pair="datum_lon,-86.088027778"/>
        <meta_data_entry pair="faa_code,HFY"/>
        <meta_data_entry pair="gui_label,3D"/>
        <meta_data_entry pair="iata_code,"/>
        <meta_data_entry pair="icao_code,KHFY"/>
        <meta_data_entry pair="region_code,K5"/>
        <meta_data_entry pair="state,Indiana"/>
        <meta_data_entry pair="transition_alt,18000"/>
        <meta_data_entry pair="transition_level,18000"/>
      </meta_data>
    </object>
    <object class="WED_AirportChain" id="948" parent_id="9">
      <children>
        <child id="949"/>
        <child id="950"/>
      </children>
      <hierarchy name="Linear Feature 46" locked="0" hidden="0"/>
      <airport_chain closed="0"/>
    </object>
    <object class="WED_AirportNode" id="397" parent_id="394">
      <children/>
      <hierarchy name="unnamed entity" locked="0" hidden="0"/>
      <point latitude="39.632526590" longitude="-86.089123370" split="0" ctrl_latitude_lo="-0.000001390" ctrl_longitude_lo="0.000057530" ctrl_latitude_hi="0.000001390" ctrl_longitude_hi="-0.000057530"/>
      <markings/>
    </object>
    <object class="WED_ObjPlacement" id="3090" parent_id="1378">
      <children/>
      <hierarchy name="autogen_tree_any.obj" locked="0" hidden="0"/>
      <point latitude="39.641355287" longitude="-86.087750343" heading="232.12"/>
      <obj_placement custom_msl="0" msl="0.0" resource="lib/g10/forests/autogen_tree_any.obj" show_level="1 Default"/>
    </object>
    <object class="WED_ObjPlacement" id="1457" parent_id="1378">
      <children/>
      <hierarchy name="car_static.obj" locked="0" hidden="0"/>
      <point latitude="39.634668975" longitude="-86.085227359" heading="293.39"/>
      <obj_placement custom_msl="0" msl="0.0" resource="lib/cars/car_static.obj" show_level="1 Default"/>
    </object>
    <object class="WED_Group" id="6" parent_id="5">
      <children>
        <child id="1108"/>
        <child id="1109"/>
        <child id="1110"/>
        <child id="1111"/>
      </children>
      <hierarchy name="ATC" locked="0" hidden="0"/>
    </object>
    <object class="WED_Group" id="7" parent_id="5">
      <children>
        <child id="1112"/>
        <child id="1113"/>
        <child id="1114"/>
        <child id="1115"/>
        <child id="1116"/>
        <child id="1117"/>
      </children>
      <hierarchy name="Ground Vehicles" locked="0" hidden="0"/>
    </object>
    <object class="WED_ObjPlacement" id="4022" parent_id="1378">
      <children/>
      <hierarchy name="0600A0358A016.obj" locked="0" hidden="0"/>
      <point latitude="39.635118639" longitude="-86.093795777" heading="359.29"/>
      <obj_placement custom_msl="0" msl="0.0" resource="lib/g10/US/urban_high/0600A0358A016.obj" show_level="1 Default"/>
    </object>
    <object class="WED_TaxiRouteNode" id="1124" parent_id="13">
      <viewers>
        <viewer id="1280"/>
        <viewer id="1281"/>
      </viewers>
      <children/>
      <hierarchy name="Crew Vehicles_stop" locked="0" hidden="0"/>
      <point latitude="39.629990170" longitude="-86.089990800"/>
    </object>
    <object class="WED_AirportNode" id="407" parent_id="404">
      <children/>
      <hierarchy name="unnamed entity" locked="0" hidden="0"/>
      <point latitude="39.632707630" longitude="-86.088641640" split="0" ctrl_latitude_lo="0.0" ctrl_longitude_lo="0.0" ctrl_latitude_hi="0.0" ctrl_longitude_hi="0.0"/>
      <markings/>
    </object>
    <object class="WED_Group" id="8" parent_id="5">
      <children>
        <child id="1062"/>
        <child id="1063"/>
      </children>
      <hierarchy name="Lights" locked="0" hidden="0"/>
    </object>
    <object class="WED_ObjPlacement" id="3515" parent_id="1378">
      <children/>
      <hierarchy name="autogen_tree2.obj" locked="0" hidden="0"/>
      <point latitude="39.624136912" longitude="-86.091062028" heading="0.0"/>
      <obj_placement custom_msl="0" msl="0.0" resource="lib/g10/forests/autogen_tree2.obj" show_level="1 Default"/>
    </object>
    <object class="WED_TaxiRouteNode" id="1126" parent_id="13">
      <viewers>
        <viewer id="1282"/>
        <viewer id="1283"/>
      </viewers>
      <children/>
      <hierarchy name="Crew Vehicles_stop" locked="0" hidden="0"/>
      <point latitude="39.630135030" longitude="-86.090003190"/>
    </object>
    <object class="WED_AirportNode" id="401" parent_id="399">
      <children/>
      <hierarchy name="unnamed entity" locked="0" hidden="0"/>
      <point latitude="39.632526960" longitude="-86.088838160" split="0" ctrl_latitude_lo="0.000003180" ctrl_longitude_lo="0.000049470" ctrl_latitude_hi="-0.000003180" ctrl_longitude_hi="-0.000049470"/>
      <markings/>
    </object>
    <object class="WED_Group" id="10" parent_id="5">
      <children>
        <child id="1071"/>
        <child id="1072"/>
        <child id="1073"/>
        <child id="1074"/>
        <child id="1075"/>
        <child id="1076"/>
        <child id="1077"/>
        <child id="1078"/>
        <child id="1079"/>
        <child id="1080"/>
        <child id="1081"/>
        <child id="1082"/>
        <child id="1083"/>
        <child id="1084"/>
        <child id="1085"/>
        <child id="1086"/>
        <child id="1087"/>
        <child id="1088"/>
        <child id="1089"/>
        <child id="1090"/>
        <child id="1091"/>
        <child id="1092"/>
        <child id="1093"/>
        <child id="1094"/>
        <child id="1095"/>
        <child id="1096"/>
        <child id="1097"/>
        <child id="1098"/>
        <child id="1099"/>
        <child id="1100"/>
        <child id="1101"/>
        <child id="1102"/>
        <child id="1103"/>
      </children>
      <hierarchy name="Ramp Starts" locked="0" hidden="0"/>
    </object>
    <object class="WED_ObjPlacement" id="1978" parent_id="1378">
      <children/>
      <hierarchy name="autogen_tree3.obj" locked="0" hidden="0"/>
      <point latitude="39.634799630" longitude="-86.089023518" heading="0.0"/>
      <obj_placement custom_msl="0" msl="0.0" resource="lib/g10/forests/autogen_tree3.obj" show_level="1 Default"/>
    </object>
    <object class="WED_Group" id="11" parent_id="5">
      <children>
        <child id="18"/>
      </children>
      <hierarchy name="Runways" locked="0" hidden="0"/>
    </object>
    <object class="WED_AirportNode" id="395" parent_id="394">
      <children/>
      <hierarchy name="unnamed entity" locked="0" hidden="0"/>
      <point latitude="39.632603310" longitude="-86.089009220" split="0" ctrl_latitude_lo="0.0" ctrl_longitude_lo="0.0" ctrl_latitude_hi="0.0" ctrl_longitude_hi="0.0"/>
      <markings/>
    </object>
    <object class="WED_ObjPlacement" id="3096" parent_id="1378">
      <children/>
      <hierarchy name="autogen_tree_any.obj" locked="0" hidden="0"/>
      <point latitude="39.641661421" longitude="-86.086983101" heading="180.00"/>
      <obj_placement custom_msl="0" msl="0.0" resource="lib/g10/forests/autogen_tree_any.obj" show_level="1 Default"/>
    </object>
    <object class="WED_ObjPlacement" id="1471" parent_id="1378">
      <children/>
      <hierarchy name="car_static.obj" locked="0" hidden="0"/>
      <point latitude="39.635227836" longitude="-86.085134852" heading="272.20"/>
      <obj_placement custom_msl="0" msl="0.0" resource="lib/cars/car_static.obj" show_level="1 Default"/>
    </object>
    <object class="WED_Group" id="12" parent_id="5">
      <children>
        <child id="1064"/>
        <child id="1065"/>
        <child id="1066"/>
        <child id="1067"/>
        <child id="1068"/>
        <child id="1069"/>
        <child id="1070"/>
      </children>
      <hierarchy name="Signs" locked="0" hidden="0"/>
    </object>
    <object class="WED_Group" id="13" parent_id="5">
      <children>
        <child id="1118"/>
        <child id="1119"/>
        <child id="1120"/>
        <child id="1121"/>
        <child id="1122"/>
        <child id="1123"/>
        <child id="1124"/>
        <child id="1125"/>
        <child id="1126"/>
        <child id="1127"/>
        <child id="1128"/>
        <child id="1129"/>
        <child id="1130"/>
        <child id="1131"/>
        <child id="1132"/>
        <child id="1133"/>
        <child id="1134"/>
        <child id="1135"/>
        <child id="1136"/>
        <child id="1137"/>
        <child id="1138"/>
        <child id="1139"/>
        <child id="1140"/>
        <child id="1141"/>
        <child id="1142"/>
        <child id="1143"/>
        <child id="1144"/>
        <child id="1145"/>
        <child id="1146"/>
        <child id="1147"/>
        <child id="1148"/>
        <child id="1149"/>
        <child id="1150"/>
        <child id="1151"/>
        <child id="1152"/>
        <child id="1153"/>
        <child id="1154"/>
        <child id="1155"/>
        <child id="1156"/>
        <child id="1157"/>
        <child id="1158"/>
        <child id="1159"/>
        <child id="1160"/>
        <child id="1161"/>
        <child id="1162"/>
        <child id="1163"/>
        <child id="1164"/>
        <child id="1165"/>
        <child id="1166"/>
        <child id="1167"/>
        <child id="1168"/>
        <child id="1169"/>
        <child id="1170"/>
        <child id="1171"/>
        <child id="1172"/>
        <child id="1173"/>
        <child id="1174"/>
        <child id="1175"/>
        <child id="1176"/>
        <child id="1177"/>
        <child id="1178"/>
        <child id="1179"/>
        <child id="1180"/>
        <child id="1181"/>
        <child id="1182"/>
        <child id="1183"/>
        <child id="1184"/>
        <child id="1185"/>
        <child id="1186"/>
        <child id="1187"/>
        <child id="1188"/>
        <child id="1189"/>
        <child id="1190"/>
        <child id="1191"/>
        <child id="1192"/>
        <child id="1193"/>
        <child id="1194"/>
        <child id="1195"/>
        <child id="1196"/>
        <child id="1197"/>
        <child id="1198"/>
        <child id="1199"/>
        <child id="1200"/>
        <child id="1201"/>
        <child id="1202"/>
        <child id="1203"/>
        <child id="1204"/>
        <child id="1205"/>
        <child id="1206"/>
        <child id="1207"/>
        <child id="1208"/>
        <child id="1209"/>
        <child id="1210"/>
        <child id="1211"/>
        <child id="1212"/>
        <child id="1213"/>
        <child id="1214"/>
        <child id="1215"/>
        <child id="1216"/>
        <child id="1217"/>
        <child id="1218"/>
        <child id="1219"/>
        <child id="1220"/>
        <child id="1221"/>
        <child id="1222"/>
        <child id="1223"/>
        <child id="1224"/>
        <child id="1225"/>
        <child id="1226"/>
        <child id="1227"/>
        <child id="1228"/>
        <child id="1229"/>
        <child id="1230"/>
        <child id="1231"/>
        <child id="1232"/>
        <child id="1233"/>
        <child id="1234"/>
        <child id="1235"/>
        <child id="1236"/>
        <child id="1237"/>
        <child id="1238"/>
        <child id="1239"/>
        <child id="1240"/>
        <child id="1241"/>
        <child id="1242"/>
        <child id="1243"/>
        <child id="1244"/>
        <child id="1245"/>
        <child id="1246"/>
        <child id="1247"/>
        <child id="1248"/>
        <child id="1249"/>
        <child id="1250"/>
        <child id="1251"/>
        <child id="1252"/>
        <child id="1253"/>
        <child id="1254"/>
        <child id="1255"/>
        <child id="1256"/>
        <child id="1257"/>
        <child id="1258"/>
        <child id="1259"/>
        <child id="1260"/>
        <child id="1261"/>
        <child id="1262"/>
        <child id="1263"/>
        <child id="1264"/>
        <child id="1265"/>
        <child id="1266"/>
        <child id="1267"/>
        <child id="1268"/>
        <child id="1269"/>
        <child id="1270"/>
        <child id="1271"/>
        <child id="1272"/>
        <child id="1273"/>
        <child id="1274"/>
      </children>
      <hierarchy name="Taxi Routes" locked="0" hidden="0"/>
    </object>
    <object class="WED_AirportNode" id="956" parent_id="951">
      <children/>
      <hierarchy name="unnamed entity" locked="0" hidden="0"/>
      <point latitude="39.621129940" longitude="-86.089782160" split="1" ctrl_latitude_lo="-0.000021320" ctrl_longitude_lo="0.000066370" ctrl_latitude_hi="0.000020030" ctrl_longitude_hi="-0.000062360"/>
      <markings>
        <marking value="Double Solid Yellow (Black)"/>
      </markings>
    </object>
    <object class="WED_AirportNode" id="405" parent_id="404">
      <children/>
      <hierarchy name="unnamed entity" locked="0" hidden="0"/>
      <point latitude="39.632604590" longitude="-86.088582210" split="0" ctrl_latitude_lo="0.0" ctrl_longitude_lo="0.0" ctrl_latitude_hi="0.0" ctrl_longitude_hi="0.0"/>
      <markings/>
    </object>
    <object class="WED_ObjPlacement" id="1465" parent_id="1378">
      <children/>
      <hierarchy name="car_static.obj" locked="0" hidden="0"/>
      <point latitude="39.635007534" longitude="-86.085135805" heading="269.38"/>
      <obj_placement custom_msl="0" msl="0.0" resource="lib/cars/car_static.obj" show_level="1 Default"/>
    </object>
    <object class="WED_Group" id="14" parent_id="5">
      <children>
        <child id="1275"/>
        <child id="1276"/>
        <child id="1277"/>
        <child id="1278"/>
        <child id="1279"/>
        <child id="1280"/>
        <child id="1281"/>
        <child id="1282"/>
        <child id="1283"/>
        <child id="1284"/>
        <child id="1285"/>
        <child id="1286"/>
        <child id="1287"/>
        <child id="1288"/>
        <child id="1289"/>
        <child id="1290"/>
        <child id="1291"/>
        <child id="1292"/>
        <child id="1293"/>
        <child id="1294"/>
        <child id="1295"/>
        <child id="1296"/>
        <child id="1297"/>
        <child id="1298"/>
        <child id="1299"/>
        <child id="1300"/>
        <child id="1301"/>
        <child id="1302"/>
        <child id="1303"/>
        <child id="1304"/>
        <child id="1305"/>
        <child id="1306"/>
        <child id="1307"/>
        <child id="1308"/>
        <child id="1309"/>
        <child id="1310"/>
        <child id="1311"/>
        <child id="1312"/>
        <child id="1313"/>
        <child id="1314"/>
        <child id="1315"/>
        <child id="1316"/>
        <child id="1317"/>
        <child id="1318"/>
        <child id="1319"/>
        <child id="1320"/>
        <child id="1321"/>
        <child id="1322"/>
        <child id="1323"/>
        <child id="1324"/>
        <child id="1325"/>
        <child id="1326"/>
      </children>
      <hierarchy name="Ground Routes" locked="0" hidden="0"/>
    </object>
    <object class="WED_Group" id="15" parent_id="5">
      <children>
        <child id="21"/>
        <child id="541"/>
        <child id="561"/>
        <child id="605"/>
        <child id="660"/>
        <child id="699"/>
        <child id="730"/>
        <child id="736"/>
        <child id="742"/>
      </children>
      <hierarchy name="Taxiways" locked="0" hidden="0"/>
    </object>
    <object class="WED_TaxiRouteNode" id="1132" parent_id="13">
      <viewers>
        <viewer id="1288"/>
        <viewer id="1289"/>
        <viewer id="1296"/>
      </viewers>
      <children/>
      <hierarchy name="Crew Vehicles_stop" locked="0" hidden="0"/>
      <point latitude="39.630944730" longitude="-86.090292870"/>
    </object>
    <object class="WED_AirportChain" id="415" parent_id="21">
      <children>
        <child id="416"/>
        <child id="417"/>
        <child id="418"/>
        <child id="419"/>
      </children>
      <hierarchy name="unnamed entity" locked="0" hidden="0"/>
      <airport_chain closed="1"/>
    </object>
    <object class="WED_Group" id="16" parent_id="5">
      <children>
        <child id="748"/>
        <child id="1104"/>
      </children>
      <hierarchy name="Tower, Beacon and Boundaries" locked="0" hidden="0"/>
    </object>
    <object class="WED_Group" id="17" parent_id="5">
      <children>
        <child id="1105"/>
        <child id="1106"/>
        <child id="1107"/>
      </children>
      <hierarchy name="Windsocks" locked="0" hidden="0"/>
    </object>
    <object class="WED_AirportNode" id="896" parent_id="895">
      <children/>
      <hierarchy name="unnamed entity" locked="0" hidden="0"/>
      <point latitude="39.625335000" longitude="-86.089285360" split="0" ctrl_latitude_lo="0.0" ctrl_longitude_lo="0.0" ctrl_latitude_hi="0.0" ctrl_longitude_hi="0.0"/>
      <markings>
        <marking value="Solid Yellow (Black)"/>
      </markings>
    </object>
    <object class="WED_TaxiRouteNode" id="1134" parent_id="13">
      <viewers>
        <viewer id="1290"/>
      </viewers>
      <children/>
      <hierarchy name="Crew Vehicles_stop" locked="0" hidden="0"/>
      <point latitude="39.630776890" longitude="-86.090344020"/>
    </object>
    <object class="WED_AirportNode" id="409" parent_id="404">
      <children/>
      <hierarchy name="unnamed entity" locked="0" hidden="0"/>
      <point latitude="39.632790810" longitude="-86.088576730" split="0" ctrl_latitude_lo="-0.000000770" ctrl_longitude_lo="-0.000033480" ctrl_latitude_hi="0.000000770" ctrl_longitude_hi="0.000033480"/>
      <markings/>
    </object>
    <object class="WED_Runway" id="18" parent_id="11">
      <children>
        <child id="19"/>
        <child id="20"/>
      </children>
      <hierarchy name="1/19" locked="0" hidden="0"/>
      <line width="22.86"/>
      <runway surface="Asphalt" shoulder="None" roughness="0.25" center_lites="0" edge_lites="MIRL" distance_signs="0" displaced1="31.0" blastpad1="0.0" markings1="Non-Precision (US)" app_lites1="None" TDZL1="0" REIL1="Unidirectional REIL" displaced2="31.0" blastpad2="0.0" markings2="Non-Precision (US)" app_lites2="None" TDZL2="0" REIL2="Unidirectional REIL"/>
    </object>
    <object class="WED_ObjPlacement" id="3469" parent_id="1378">
      <children/>
      <hierarchy name="autogen_tree2.obj" locked="0" hidden="0"/>
      <point latitude="39.626837282" longitude="-86.096423667" heading="0.0"/>
      <obj_placement custom_msl="0" msl="0.0" resource="lib/g10/forests/autogen_tree2.obj" show_level="1 Default"/>
    </object>
    <object class="WED_ObjPlacement" id="1922" parent_id="1378">
      <children/>
      <hierarchy name="autogen_tree3.obj" locked="0" hidden="0"/>
      <point latitude="39.633605612" longitude="-86.092373350" heading="0.0"/>
      <obj_placement custom_msl="0" msl="0.0" resource="lib/g10/forests/autogen_tree3.obj" show_level="1 Default"/>
    </object>
    <object class="WED_RunwayNode" id="19" parent_id="18">
      <children/>
      <hierarchy name="unnamed entity" locked="0" hidden="0"/>
      <point latitude="39.620684790" longitude="-86.089231710"/>
    </object>
    <object class="WED_AirportNode" id="403" parent_id="399">
      <children/>
      <hierarchy name="unnamed entity" locked="0" hidden="0"/>
      <point latitude="39.632605190" longitude="-86.088956590" split="0" ctrl_latitude_lo="0.0" ctrl_longitude_lo="0.0" ctrl_latitude_hi="0.0" ctrl_longitude_hi="0.0"/>
      <markings/>
    </object>
    <object class="WED_ObjPlacement" id="1415" parent_id="1378">
      <children/>
      <hierarchy name="flora_carriacou_shrub1.obj" locked="0" hidden="0"/>
      <point latitude="39.630304417" longitude="-86.089798390" heading="0.0"/>
      <obj_placement custom_msl="0" msl="0.0" resource="CDB-Library/Flora_Fauna/fiori/carriacou/flora_carriacou_shrub1.obj" show_level="1 Default"/>
    </object>
    <object class="WED_RunwayNode" id="20" parent_id="18">
      <children/>
      <hierarchy name="unnamed entity" locked="0" hidden="0"/>
      <point latitude="39.634556570" longitude="-86.086828600"/>
    </object>
    <object class="WED_Taxiway" id="21" parent_id="15">
      <children>
        <child id="22"/>
        <child id="139"/>
        <child id="144"/>
        <child id="149"/>
        <child id="154"/>
        <child id="159"/>
        <child id="164"/>
        <child id="169"/>
        <child id="174"/>
        <child id="179"/>
        <child id="184"/>
        <child id="189"/>
        <child id="194"/>
        <child id="199"/>
        <child id="204"/>
        <child id="209"/>
        <child id="214"/>
        <child id="225"/>
        <child id="230"/>
        <child id="235"/>
        <child id="240"/>
        <child id="245"/>
        <child id="250"/>
        <child id="257"/>
        <child id="262"/>
        <child id="267"/>
        <child id="272"/>
        <child id="277"/>
        <child id="288"/>
        <child id="293"/>
        <child id="298"/>
        <child id="303"/>
        <child id="308"/>
        <child id="313"/>
        <child id="318"/>
        <child id="323"/>
        <child id="328"/>
        <child id="333"/>
        <child id="338"/>
        <child id="349"/>
        <child id="354"/>
        <child id="359"/>
        <child id="364"/>
        <child id="369"/>
        <child id="374"/>
        <child id="379"/>
        <child id="384"/>
        <child id="389"/>
        <child id="394"/>
        <child id="399"/>
        <child id="404"/>
        <child id="415"/>
        <child id="420"/>
        <child id="425"/>
        <child id="430"/>
        <child id="435"/>
        <child id="440"/>
        <child id="448"/>
        <child id="456"/>
        <child id="463"/>
        <child id="468"/>
        <child id="473"/>
        <child id="479"/>
        <child id="484"/>
        <child id="489"/>
        <child id="494"/>
        <child id="501"/>
        <child id="508"/>
        <child id="516"/>
        <child id="528"/>
      </children>
      <hierarchy name="T's Taxiway Network" locked="0" hidden="0"/>
      <taxiway surface="Asphalt" roughness="0.25" heading="0.0"/>
    </object>
    <object class="WED_AirportNode" id="900" parent_id="899">
      <children/>
      <hierarchy name="unnamed entity" locked="0" hidden="0"/>
      <point latitude="39.625707700" longitude="-86.089221070" split="0" ctrl_latitude_lo="0.0" ctrl_longitude_lo="0.0" ctrl_latitude_hi="0.0" ctrl_longitude_hi="0.0"/>
      <markings>
        <marking value="Solid Yellow (Black)"/>
      </markings>
    </object>
    <object class="WED_AirportNode" id="413" parent_id="404">
      <children/>
      <hierarchy name="unnamed entity" locked="0" hidden="0"/>
      <point latitude="39.632529670" longitude="-86.088718250" split="0" ctrl_latitude_lo="-0.000008130" ctrl_longitude_lo="0.000036220" ctrl_latitude_hi="0.000008130" ctrl_longitude_hi="-0.000036220"/>
      <markings/>
    </object>
    <object class="WED_ObjPlacement" id="3170" parent_id="1378">
      <children/>
      <hierarchy name="autogen_tree_any.obj" locked="0" hidden="0"/>
      <point latitude="39.640340085" longitude="-86.089570935" heading="55.22"/>
      <obj_placement custom_msl="0" msl="0.0" resource="lib/g10/forests/autogen_tree_any.obj" show_level="1 Default"/>
    </object>
    <object class="WED_ObjPlacement" id="1409" parent_id="1378">
      <children/>
      <hierarchy name="king_air_b200.obj" locked="0" hidden="0"/>
      <point latitude="39.630555238" longitude="-86.089865625" heading="72.69"/>
      <obj_placement custom_msl="0" msl="0.0" resource="opensceneryx/objects/aircraft/props/ga/king_air_b200.obj" show_level="1 Default"/>
    </object>
    <object class="WED_AirportChain" id="22" parent_id="21">
      <children>
        <child id="23"/>
        <child id="24"/>
        <child id="25"/>
        <child id="26"/>
        <child id="27"/>
        <child id="28"/>
        <child id="29"/>
        <child id="30"/>
        <child id="31"/>
        <child id="32"/>
        <child id="33"/>
        <child id="34"/>
        <child id="35"/>
        <child id="36"/>
        <child id="37"/>
        <child id="38"/>
        <child id="39"/>
        <child id="40"/>
        <child id="41"/>
        <child id="42"/>
        <child id="43"/>
        <child id="44"/>
        <child id="45"/>
        <child id="46"/>
        <child id="47"/>
        <child id="48"/>
        <child id="49"/>
        <child id="50"/>
        <child id="51"/>
        <child id="52"/>
        <child id="53"/>
        <child id="54"/>
        <child id="55"/>
        <child id="56"/>
        <child id="57"/>
        <child id="58"/>
        <child id="59"/>
        <child id="60"/>
        <child id="61"/>
        <child id="62"/>
        <child id="63"/>
        <child id="64"/>
        <child id="65"/>
        <child id="66"/>
        <child id="67"/>
        <child id="68"/>
        <child id="69"/>
        <child id="70"/>
        <child id="71"/>
        <child id="72"/>
        <child id="73"/>
        <child id="74"/>
        <child id="75"/>
        <child id="76"/>
        <child id="77"/>
        <child id="78"/>
        <child id="79"/>
        <child id="80"/>
        <child id="81"/>
        <child id="82"/>
        <child id="83"/>
        <child id="84"/>
        <child id="85"/>
        <child id="86"/>
        <child id="87"/>
        <child id="88"/>
        <child id="89"/>
        <child id="90"/>
        <child id="91"/>
        <child id="92"/>
        <child id="93"/>
        <child id="94"/>
        <child id="95"/>
        <child id="96"/>
        <child id="97"/>
        <child id="98"/>
        <child id="99"/>
        <child id="100"/>
        <child id="101"/>
        <child id="102"/>
        <child id="103"/>
        <child id="104"/>
        <child id="105"/>
        <child id="106"/>
        <child id="107"/>
        <child id="108"/>
        <child id="109"/>
        <child id="110"/>
        <child id="111"/>
        <child id="112"/>
        <child id="113"/>
        <child id="114"/>
        <child id="115"/>
        <child id="116"/>
        <child id="117"/>
        <child id="118"/>
        <child id="119"/>
        <child id="120"/>
        <child id="121"/>
        <child id="122"/>
        <child id="123"/>
        <child id="124"/>
        <child id="125"/>
        <child id="126"/>
        <child id="127"/>
        <child id="128"/>
        <child id="129"/>
        <child id="130"/>
        <child id="131"/>
        <child id="132"/>
        <child id="133"/>
        <child id="134"/>
        <child id="135"/>
        <child id="136"/>
        <child id="137"/>
        <child id="138"/>
      </children>
      <hierarchy name="unnamed entity" locked="0" hidden="0"/>
      <airport_chain closed="1"/>
    </object>
    <object class="WED_AirportNode" id="23" parent_id="22">
      <children/>
      <hierarchy name="unnamed entity" locked="0" hidden="0"/>
      <point latitude="39.632209900" longitude="-86.090274550" split="1" ctrl_latitude_lo="0.0" ctrl_longitude_lo="0.0" ctrl_latitude_hi="-0.000011860" ctrl_longitude_hi="-0.000006040"/>
      <markings/>
    </object>
    <object class="WED_ObjPlacement" id="3974" parent_id="1378">
      <children/>
      <hierarchy name="autogen_tree2.obj" locked="0" hidden="0"/>
      <point latitude="39.639617189" longitude="-86.084534504" heading="0.0"/>
      <obj_placement custom_msl="0" msl="0.0" resource="lib/g10/forests/autogen_tree2.obj" show_level="1 Default"/>
    </object>
    <object class="WED_ObjPlacement" id="3467" parent_id="1378">
      <children/>
      <hierarchy name="autogen_tree2.obj" locked="0" hidden="0"/>
      <point latitude="39.626921683" longitude="-86.096368830" heading="0.0"/>
      <obj_placement custom_msl="0" msl="0.0" resource="lib/g10/forests/autogen_tree2.obj" show_level="1 Default"/>
    </object>
    <object class="WED_AirportNode" id="24" parent_id="22">
      <children/>
      <hierarchy name="unnamed entity" locked="0" hidden="0"/>
      <point latitude="39.632197550" longitude="-86.090303040" split="0" ctrl_latitude_lo="0.0" ctrl_longitude_lo="0.0" ctrl_latitude_hi="0.0" ctrl_longitude_hi="0.0"/>
      <markings/>
    </object>
    <object class="WED_AirportNode" id="487" parent_id="484">
      <children/>
      <hierarchy name="unnamed entity" locked="0" hidden="0"/>
      <point latitude="39.634016900" longitude="-86.088762050" split="0" ctrl_latitude_lo="0.000002360" ctrl_longitude_lo="0.000031650" ctrl_latitude_hi="-0.000002360" ctrl_longitude_hi="-0.000031650"/>
      <markings/>
    </object>
    <object class="WED_TaxiRouteNode" id="1140" parent_id="13">
      <viewers>
        <viewer id="1261"/>
        <viewer id="1265"/>
      </viewers>
      <children/>
      <hierarchy name="Crew Vehicles_stop" locked="0" hidden="0"/>
      <point latitude="39.634178030" longitude="-86.086889890"/>
    </object>
    <object class="WED_AirportNode" id="904" parent_id="903">
      <children/>
      <hierarchy name="unnamed entity" locked="0" hidden="0"/>
      <point latitude="39.628572640" longitude="-86.088726540" split="0" ctrl_latitude_lo="0.0" ctrl_longitude_lo="0.0" ctrl_latitude_hi="0.0" ctrl_longitude_hi="0.0"/>
      <markings>
        <marking value="Solid Yellow (Black)"/>
      </markings>
    </object>
    <object class="WED_AirportNode" id="25" parent_id="22">
      <children/>
      <hierarchy name="unnamed entity" locked="0" hidden="0"/>
      <point latitude="39.632194350" longitude="-86.090750640" split="0" ctrl_latitude_lo="0.0" ctrl_longitude_lo="0.0" ctrl_latitude_hi="0.0" ctrl_longitude_hi="0.0"/>
      <markings/>
    </object>
    <object class="WED_AirportNode" id="26" parent_id="22">
      <children/>
      <hierarchy name="unnamed entity" locked="0" hidden="0"/>
      <point latitude="39.632172700" longitude="-86.090751300" split="0" ctrl_latitude_lo="0.0" ctrl_longitude_lo="0.0" ctrl_latitude_hi="0.0" ctrl_longitude_hi="0.0"/>
      <markings/>
    </object>
    <object class="WED_AirportNode" id="481" parent_id="479">
      <children/>
      <hierarchy name="unnamed entity" locked="0" hidden="0"/>
      <point latitude="39.633954940" longitude="-86.089444620" split="0" ctrl_latitude_lo="-0.000001080" ctrl_longitude_lo="-0.000047010" ctrl_latitude_hi="0.000001080" ctrl_longitude_hi="0.000047010"/>
      <markings/>
    </object>
    <object class="WED_TaxiRouteNode" id="1142" parent_id="13">
      <viewers>
        <viewer id="1244"/>
        <viewer id="1262"/>
        <viewer id="1263"/>
      </viewers>
      <children/>
      <hierarchy name="Crew Vehicles_start" locked="0" hidden="0"/>
      <point latitude="39.625435390" longitude="-86.088406400"/>
    </object>
    <object class="WED_AirportNode" id="27" parent_id="22">
      <children/>
      <hierarchy name="unnamed entity" locked="0" hidden="0"/>
      <point latitude="39.632143560" longitude="-86.090751290" split="0" ctrl_latitude_lo="0.0" ctrl_longitude_lo="0.0" ctrl_latitude_hi="0.0" ctrl_longitude_hi="0.0"/>
      <markings/>
    </object>
    <object class="WED_ObjPlacement" id="1930" parent_id="1378">
      <children/>
      <hierarchy name="autogen_tree3.obj" locked="0" hidden="0"/>
      <point latitude="39.633525978" longitude="-86.092841135" heading="0.0"/>
      <obj_placement custom_msl="0" msl="0.0" resource="lib/g10/forests/autogen_tree3.obj" show_level="1 Default"/>
    </object>
    <object class="WED_AirportNode" id="28" parent_id="22">
      <children/>
      <hierarchy name="unnamed entity" locked="0" hidden="0"/>
      <point latitude="39.632064650" longitude="-86.090752680" split="0" ctrl_latitude_lo="0.0" ctrl_longitude_lo="0.0" ctrl_latitude_hi="0.0" ctrl_longitude_hi="0.0"/>
      <markings/>
    </object>
    <object class="WED_ObjPlacement" id="1423" parent_id="1378">
      <children/>
      <hierarchy name="objects_barrelJet_3.obj" locked="0" hidden="0"/>
      <point latitude="39.631300546" longitude="-86.090337701" heading="308.15"/>
      <obj_placement custom_msl="0" msl="0.0" resource="CDB-Library/Airport/barrels/barrels_jet/objects_barrelJet_3.obj" show_level="1 Default"/>
    </object>
    <object class="WED_ObjPlacement" id="3176" parent_id="1378">
      <children/>
      <hierarchy name="autogen_tree_any.obj" locked="0" hidden="0"/>
      <point latitude="39.641392958" longitude="-86.090777352" heading="116.57"/>
      <obj_placement custom_msl="0" msl="0.0" resource="lib/g10/forests/autogen_tree_any.obj" show_level="1 Default"/>
    </object>
    <object class="WED_AirportNode" id="411" parent_id="404">
      <children/>
      <hierarchy name="unnamed entity" locked="0" hidden="0"/>
      <point latitude="39.632626700" longitude="-86.088466100" split="0" ctrl_latitude_lo="0.0" ctrl_longitude_lo="0.0" ctrl_latitude_hi="0.0" ctrl_longitude_hi="0.0"/>
      <markings/>
    </object>
    <object class="WED_AirportNode" id="1024" parent_id="1015">
      <children/>
      <hierarchy name="unnamed entity" locked="0" hidden="0"/>
      <point latitude="39.633716630" longitude="-86.087783550" split="0" ctrl_latitude_lo="0.000024640" ctrl_longitude_lo="0.000005000" ctrl_latitude_hi="-0.000024640" ctrl_longitude_hi="-0.000005000"/>
      <markings>
        <marking value="Double Solid Yellow (Black)"/>
      </markings>
    </object>
    <object class="WED_AirportNode" id="908" parent_id="907">
      <children/>
      <hierarchy name="unnamed entity" locked="0" hidden="0"/>
      <point latitude="39.628184910" longitude="-86.088793680" split="0" ctrl_latitude_lo="0.0" ctrl_longitude_lo="0.0" ctrl_latitude_hi="0.0" ctrl_longitude_hi="0.0"/>
      <markings>
        <marking value="Solid Yellow (Black)"/>
      </markings>
    </object>
    <object class="WED_AirportNode" id="29" parent_id="22">
      <children/>
      <hierarchy name="unnamed entity" locked="0" hidden="0"/>
      <point latitude="39.632055820" longitude="-86.090736360" split="0" ctrl_latitude_lo="0.0" ctrl_longitude_lo="0.0" ctrl_latitude_hi="0.0" ctrl_longitude_hi="0.0"/>
      <markings/>
    </object>
    <object class="WED_AirportNode" id="30" parent_id="22">
      <children/>
      <hierarchy name="unnamed entity" locked="0" hidden="0"/>
      <point latitude="39.631777770" longitude="-86.090736190" split="0" ctrl_latitude_lo="0.0" ctrl_longitude_lo="0.0" ctrl_latitude_hi="0.0" ctrl_longitude_hi="0.0"/>
      <markings/>
    </object>
    <object class="WED_ObjPlacement" id="1417" parent_id="1378">
      <children/>
      <hierarchy name="MainHangar.obj" locked="0" hidden="0"/>
      <point latitude="39.630279145" longitude="-86.089814603" heading="276.79"/>
      <obj_placement custom_msl="0" msl="0.0" resource="objects/MainHangar.obj" show_level="1 Default"/>
    </object>
    <object class="WED_AirportNode" id="485" parent_id="484">
      <children/>
      <hierarchy name="unnamed entity" locked="0" hidden="0"/>
      <point latitude="39.634060600" longitude="-86.088870790" split="0" ctrl_latitude_lo="0.0" ctrl_longitude_lo="0.0" ctrl_latitude_hi="0.0" ctrl_longitude_hi="0.0"/>
      <markings/>
    </object>
    <object class="WED_AirportNode" id="31" parent_id="22">
      <children/>
      <hierarchy name="unnamed entity" locked="0" hidden="0"/>
      <point latitude="39.631743170" longitude="-86.090735700" split="0" ctrl_latitude_lo="0.0" ctrl_longitude_lo="0.0" ctrl_latitude_hi="0.0" ctrl_longitude_hi="0.0"/>
      <markings/>
    </object>
    <object class="WED_RampPosition" id="1084" parent_id="10">
      <children/>
      <hierarchy name="Tie Down 10" locked="0" hidden="0"/>
      <point latitude="39.630114330" longitude="-86.089270320" heading="7.60"/>
      <ramp_start type="Tie-Down" traffic="62" width="A" ramp_op_type="General Aviation" airlines=""/>
    </object>
    <object class="WED_AirportNode" id="431" parent_id="430">
      <children/>
      <hierarchy name="unnamed entity" locked="0" hidden="0"/>
      <point latitude="39.632699940" longitude="-86.089490490" split="0" ctrl_latitude_lo="0.0" ctrl_longitude_lo="0.0" ctrl_latitude_hi="0.0" ctrl_longitude_hi="0.0"/>
      <markings/>
    </object>
    <object class="WED_AirportNode" id="32" parent_id="22">
      <children/>
      <hierarchy name="unnamed entity" locked="0" hidden="0"/>
      <point latitude="39.631479040" longitude="-86.090730920" split="0" ctrl_latitude_lo="0.0" ctrl_longitude_lo="0.0" ctrl_latitude_hi="0.0" ctrl_longitude_hi="0.0"/>
      <markings/>
    </object>
    <object class="WED_AirportNode" id="33" parent_id="22">
      <children/>
      <hierarchy name="unnamed entity" locked="0" hidden="0"/>
      <point latitude="39.631441450" longitude="-86.090730910" split="0" ctrl_latitude_lo="0.0" ctrl_longitude_lo="0.0" ctrl_latitude_hi="0.0" ctrl_longitude_hi="0.0"/>
      <markings/>
    </object>
    <object class="WED_AirportNode" id="848" parent_id="847">
      <children/>
      <hierarchy name="unnamed entity" locked="0" hidden="0"/>
      <point latitude="39.625480950" longitude="-86.088808040" split="0" ctrl_latitude_lo="0.0" ctrl_longitude_lo="0.0" ctrl_latitude_hi="0.0" ctrl_longitude_hi="0.0"/>
      <markings>
        <marking value="Solid Yellow (Black)"/>
      </markings>
    </object>
    <object class="WED_RampPosition" id="1086" parent_id="10">
      <children/>
      <hierarchy name="Tie Down 17" locked="0" hidden="0"/>
      <point latitude="39.630275080" longitude="-86.088840960" heading="187.60"/>
      <ramp_start type="Tie-Down" traffic="62" width="A" ramp_op_type="General Aviation" airlines=""/>
    </object>
    <object class="WED_AirportChain" id="425" parent_id="21">
      <children>
        <child id="426"/>
        <child id="427"/>
        <child id="428"/>
        <child id="429"/>
      </children>
      <hierarchy name="unnamed entity" locked="0" hidden="0"/>
      <airport_chain closed="1"/>
    </object>
    <object class="WED_AirportNode" id="728" parent_id="700">
      <children/>
      <hierarchy name="unnamed entity" locked="0" hidden="0"/>
      <point latitude="39.628461820" longitude="-86.090194130" split="0" ctrl_latitude_lo="0.0" ctrl_longitude_lo="0.0" ctrl_latitude_hi="0.0" ctrl_longitude_hi="0.0"/>
      <markings/>
    </object>
    <object class="WED_ObjPlacement" id="3788" parent_id="1378">
      <children/>
      <hierarchy name="autogen_tree2.obj" locked="0" hidden="0"/>
      <point latitude="39.642390993" longitude="-86.087235351" heading="3.18"/>
      <obj_placement custom_msl="0" msl="0.0" resource="lib/g10/forests/autogen_tree2.obj" show_level="1 Default"/>
    </object>
    <object class="WED_ObjPlacement" id="3421" parent_id="1378">
      <children/>
      <hierarchy name="autogen_tree2.obj" locked="0" hidden="0"/>
      <point latitude="39.624052033" longitude="-86.094297417" heading="0.0"/>
      <obj_placement custom_msl="0" msl="0.0" resource="lib/g10/forests/autogen_tree2.obj" show_level="1 Default"/>
    </object>
    <object class="WED_AirportNode" id="34" parent_id="22">
      <children/>
      <hierarchy name="unnamed entity" locked="0" hidden="0"/>
      <point latitude="39.631353000" longitude="-86.090728420" split="0" ctrl_latitude_lo="0.0" ctrl_longitude_lo="0.0" ctrl_latitude_hi="0.0" ctrl_longitude_hi="0.0"/>
      <markings/>
    </object>
    <object class="WED_ObjPlacement" id="2765" parent_id="1378">
      <children/>
      <hierarchy name="autogen_tree_any.obj" locked="0" hidden="0"/>
      <point latitude="39.640602827" longitude="-86.090038243" heading="0.0"/>
      <obj_placement custom_msl="0" msl="0.0" resource="lib/g10/forests/autogen_tree_any.obj" show_level="1 Default"/>
    </object>
    <object class="WED_AirportNode" id="35" parent_id="22">
      <children/>
      <hierarchy name="unnamed entity" locked="0" hidden="0"/>
      <point latitude="39.631353080" longitude="-86.090085860" split="0" ctrl_latitude_lo="0.0" ctrl_longitude_lo="0.0" ctrl_latitude_hi="0.0" ctrl_longitude_hi="0.0"/>
      <markings/>
    </object>
    <object class="WED_ObjPlacement" id="1874" parent_id="1378">
      <children/>
      <hierarchy name="autogen_tree3.obj" locked="0" hidden="0"/>
      <point latitude="39.631317235" longitude="-86.093663214" heading="0.0"/>
      <obj_placement custom_msl="0" msl="0.0" resource="lib/g10/forests/autogen_tree3.obj" show_level="1 Default"/>
    </object>
    <object class="WED_AirportNode" id="419" parent_id="415">
      <children/>
      <hierarchy name="unnamed entity" locked="0" hidden="0"/>
      <point latitude="39.632708340" longitude="-86.088692620" split="0" ctrl_latitude_lo="0.0" ctrl_longitude_lo="0.0" ctrl_latitude_hi="0.0" ctrl_longitude_hi="0.0"/>
      <markings/>
    </object>
    <object class="WED_ObjPlacement" id="1746" parent_id="1378">
      <children/>
      <hierarchy name="autogen_tree3.obj" locked="0" hidden="0"/>
      <point latitude="39.632969978" longitude="-86.094503414" heading="0.0"/>
      <obj_placement custom_msl="0" msl="0.0" resource="lib/g10/forests/autogen_tree3.obj" show_level="1 Default"/>
    </object>
    <object class="WED_ObjPlacement" id="2758" parent_id="1378">
      <children/>
      <hierarchy name="autogen_tree_any.obj" locked="0" hidden="0"/>
      <point latitude="39.640125029" longitude="-86.091000992" heading="56.31"/>
      <obj_placement custom_msl="0" msl="0.0" resource="lib/g10/forests/autogen_tree_any.obj" show_level="1 Default"/>
    </object>
    <object class="WED_AirportNode" id="36" parent_id="22">
      <children/>
      <hierarchy name="unnamed entity" locked="0" hidden="0"/>
      <point latitude="39.631353060" longitude="-86.090012530" split="0" ctrl_latitude_lo="0.0" ctrl_longitude_lo="0.0" ctrl_latitude_hi="0.0" ctrl_longitude_hi="0.0"/>
      <markings/>
    </object>
    <object class="WED_SimpleBoundaryNode" id="1367" parent_id="1365">
      <children/>
      <hierarchy name="e2" locked="0" hidden="0"/>
      <point latitude="39.628559000" longitude="-86.090950000"/>
    </object>
    <object class="WED_AirportNode" id="37" parent_id="22">
      <children/>
      <hierarchy name="unnamed entity" locked="0" hidden="0"/>
      <point latitude="39.631352520" longitude="-86.088553550" split="0" ctrl_latitude_lo="0.0" ctrl_longitude_lo="0.0" ctrl_latitude_hi="0.0" ctrl_longitude_hi="0.0"/>
      <markings/>
    </object>
    <object class="WED_AirportNode" id="852" parent_id="850">
      <children/>
      <hierarchy name="unnamed entity" locked="0" hidden="0"/>
      <point latitude="39.625501310" longitude="-86.088980520" split="0" ctrl_latitude_lo="0.0" ctrl_longitude_lo="0.0" ctrl_latitude_hi="0.0" ctrl_longitude_hi="0.0"/>
      <markings/>
    </object>
    <object class="WED_ObjPlacement" id="1735" parent_id="1378">
      <children/>
      <hierarchy name="autogen_tree3.obj" locked="0" hidden="0"/>
      <point latitude="39.631268120" longitude="-86.094130999" heading="0.0"/>
      <obj_placement custom_msl="0" msl="0.0" resource="lib/g10/forests/autogen_tree3.obj" show_level="1 Default"/>
    </object>
    <object class="WED_ObjPlacement" id="3122" parent_id="1378">
      <children/>
      <hierarchy name="autogen_tree_any.obj" locked="0" hidden="0"/>
      <point latitude="39.640823606" longitude="-86.089870871" heading="69.43"/>
      <obj_placement custom_msl="0" msl="0.0" resource="lib/g10/forests/autogen_tree_any.obj" show_level="1 Default"/>
    </object>
    <object class="WED_AirportNode" id="429" parent_id="425">
      <children/>
      <hierarchy name="unnamed entity" locked="0" hidden="0"/>
      <point latitude="39.632703610" longitude="-86.089113700" split="0" ctrl_latitude_lo="0.0" ctrl_longitude_lo="0.0" ctrl_latitude_hi="0.0" ctrl_longitude_hi="0.0"/>
      <markings/>
    </object>
    <object class="WED_AirportNode" id="732" parent_id="731">
      <children/>
      <hierarchy name="unnamed entity" locked="0" hidden="0"/>
      <point latitude="39.630256570" longitude="-86.089964900" split="0" ctrl_latitude_lo="0.0" ctrl_longitude_lo="0.0" ctrl_latitude_hi="0.0" ctrl_longitude_hi="0.0"/>
      <markings>
        <marking value="Road Edge Wide"/>
      </markings>
    </object>
    <object class="WED_AirportNode" id="38" parent_id="22">
      <children/>
      <hierarchy name="unnamed entity" locked="0" hidden="0"/>
      <point latitude="39.631352500" longitude="-86.088500410" split="0" ctrl_latitude_lo="0.0" ctrl_longitude_lo="0.0" ctrl_latitude_hi="0.0" ctrl_longitude_hi="0.0"/>
      <markings/>
    </object>
    <object class="WED_SimpleBoundaryNode" id="1361" parent_id="1359">
      <children/>
      <hierarchy name="e2" locked="0" hidden="0"/>
      <point latitude="39.625056000" longitude="-86.096976000"/>
    </object>
    <object class="WED_ObjPlacement" id="1728" parent_id="1378">
      <children/>
      <hierarchy name="autogen_tree1.obj" locked="0" hidden="0"/>
      <point latitude="39.633800641" longitude="-86.083598459" heading="0.0"/>
      <obj_placement custom_msl="0" msl="0.0" resource="lib/g10/forests/autogen_tree1.obj" show_level="1 Default"/>
    </object>
    <object class="WED_ObjPlacement" id="3926" parent_id="1378">
      <children/>
      <hierarchy name="autogen_tree2.obj" locked="0" hidden="0"/>
      <point latitude="39.641436351" longitude="-86.090557050" heading="27.41"/>
      <obj_placement custom_msl="0" msl="0.0" resource="lib/g10/forests/autogen_tree2.obj" show_level="1 Default"/>
    </object>
    <object class="WED_ObjPlacement" id="2753" parent_id="1378">
      <children/>
      <hierarchy name="autogen_tree_any.obj" locked="0" hidden="0"/>
      <point latitude="39.640286202" longitude="-86.089564260" heading="270.00"/>
      <obj_placement custom_msl="0" msl="0.0" resource="lib/g10/forests/autogen_tree_any.obj" show_level="1 Default"/>
    </object>
    <object class="WED_AirportNode" id="39" parent_id="22">
      <children/>
      <hierarchy name="unnamed entity" locked="0" hidden="0"/>
      <point latitude="39.631400970" longitude="-86.088499320" split="0" ctrl_latitude_lo="0.0" ctrl_longitude_lo="0.0" ctrl_latitude_hi="0.0" ctrl_longitude_hi="0.0"/>
      <markings/>
    </object>
    <object class="WED_AirportNode" id="1028" parent_id="1015">
      <children/>
      <hierarchy name="unnamed entity" locked="0" hidden="0"/>
      <point latitude="39.631460190" longitude="-86.088076480" split="0" ctrl_latitude_lo="0.000028070" ctrl_longitude_lo="-0.000038870" ctrl_latitude_hi="-0.000028070" ctrl_longitude_hi="0.000038870"/>
      <markings>
        <marking value="Double Solid Yellow (Black)"/>
      </markings>
    </object>
    <object class="WED_AirportNode" id="439" parent_id="435">
      <children/>
      <hierarchy name="unnamed entity" locked="0" hidden="0"/>
      <point latitude="39.632698370" longitude="-86.089543690" split="0" ctrl_latitude_lo="0.0" ctrl_longitude_lo="0.0" ctrl_latitude_hi="0.0" ctrl_longitude_hi="0.0"/>
      <markings/>
    </object>
    <object class="WED_ObjPlacement" id="3419" parent_id="1378">
      <children/>
      <hierarchy name="autogen_tree2.obj" locked="0" hidden="0"/>
      <point latitude="39.624038205" longitude="-86.095303082" heading="0.0"/>
      <obj_placement custom_msl="0" msl="0.0" resource="lib/g10/forests/autogen_tree2.obj" show_level="1 Default"/>
    </object>
    <object class="WED_ObjPlacement" id="2762" parent_id="1378">
      <children/>
      <hierarchy name="autogen_tree_any.obj" locked="0" hidden="0"/>
      <point latitude="39.640044442" longitude="-86.090442607" heading="0.0"/>
      <obj_placement custom_msl="0" msl="0.0" resource="lib/g10/forests/autogen_tree_any.obj" show_level="1 Default"/>
    </object>
    <object class="WED_AirportNode" id="40" parent_id="22">
      <children/>
      <hierarchy name="unnamed entity" locked="0" hidden="0"/>
      <point latitude="39.631448230" longitude="-86.088498270" split="0" ctrl_latitude_lo="0.0" ctrl_longitude_lo="0.0" ctrl_latitude_hi="0.0" ctrl_longitude_hi="0.0"/>
      <markings/>
    </object>
    <object class="WED_ObjPlacement" id="3787" parent_id="1378">
      <children/>
      <hierarchy name="autogen_tree2.obj" locked="0" hidden="0"/>
      <point latitude="39.642499714" longitude="-86.087146658" heading="10.30"/>
      <obj_placement custom_msl="0" msl="0.0" resource="lib/g10/forests/autogen_tree2.obj" show_level="1 Default"/>
    </object>
    <object class="WED_AirportNode" id="41" parent_id="22">
      <children/>
      <hierarchy name="unnamed entity" locked="0" hidden="0"/>
      <point latitude="39.631462770" longitude="-86.088553670" split="1" ctrl_latitude_lo="-0.000012330" ctrl_longitude_lo="0.000023950" ctrl_latitude_hi="0.0" ctrl_longitude_hi="0.0"/>
      <markings/>
    </object>
    <object class="WED_AirportChain" id="856" parent_id="9">
      <children>
        <child id="857"/>
        <child id="858"/>
      </children>
      <hierarchy name="Linear Feature 45" locked="0" hidden="0"/>
      <airport_chain closed="0"/>
    </object>
    <object class="WED_AirportNode" id="1030" parent_id="1015">
      <children/>
      <hierarchy name="unnamed entity" locked="0" hidden="0"/>
      <point latitude="39.631387680" longitude="-86.087725340" split="0" ctrl_latitude_lo="-0.000000810" ctrl_longitude_lo="-0.000040610" ctrl_latitude_hi="0.000000810" ctrl_longitude_hi="0.000040610"/>
      <markings>
        <marking value="Double Solid Yellow (Black)"/>
      </markings>
    </object>
    <object class="WED_AirportNode" id="433" parent_id="430">
      <children/>
      <hierarchy name="unnamed entity" locked="0" hidden="0"/>
      <point latitude="39.632783240" longitude="-86.089374160" split="0" ctrl_latitude_lo="0.000002010" ctrl_longitude_lo="-0.000053160" ctrl_latitude_hi="-0.000002010" ctrl_longitude_hi="0.000053160"/>
      <markings/>
    </object>
    <object class="WED_AirportNode" id="42" parent_id="22">
      <children/>
      <hierarchy name="unnamed entity" locked="0" hidden="0"/>
      <point latitude="39.631500880" longitude="-86.088613710" split="1" ctrl_latitude_lo="-0.000015460" ctrl_longitude_lo="0.000015450" ctrl_latitude_hi="0.000033600" ctrl_longitude_hi="-0.000033570"/>
      <markings/>
    </object>
    <object class="WED_AirportNode" id="43" parent_id="22">
      <children/>
      <hierarchy name="unnamed entity" locked="0" hidden="0"/>
      <point latitude="39.631590020" longitude="-86.088650570" split="0" ctrl_latitude_lo="0.0" ctrl_longitude_lo="0.0" ctrl_latitude_hi="0.0" ctrl_longitude_hi="0.0"/>
      <markings/>
    </object>
    <object class="WED_ObjPlacement" id="1882" parent_id="1378">
      <children/>
      <hierarchy name="autogen_tree3.obj" locked="0" hidden="0"/>
      <point latitude="39.636207275" longitude="-86.078631647" heading="0.0"/>
      <obj_placement custom_msl="0" msl="0.0" resource="lib/g10/forests/autogen_tree3.obj" show_level="1 Default"/>
    </object>
    <object class="WED_ObjPlacement" id="3128" parent_id="1378">
      <children/>
      <hierarchy name="autogen_tree_any.obj" locked="0" hidden="0"/>
      <point latitude="39.639916171" longitude="-86.090100710" heading="323.97"/>
      <obj_placement custom_msl="0" msl="0.0" resource="lib/g10/forests/autogen_tree_any.obj" show_level="1 Default"/>
    </object>
    <object class="WED_AirportNode" id="427" parent_id="425">
      <children/>
      <hierarchy name="unnamed entity" locked="0" hidden="0"/>
      <point latitude="39.632784460" longitude="-86.089235380" split="0" ctrl_latitude_lo="-0.000001360" ctrl_longitude_lo="-0.000054490" ctrl_latitude_hi="0.000001360" ctrl_longitude_hi="0.000054490"/>
      <markings/>
    </object>
    <object class="WED_ObjPlacement" id="1754" parent_id="1378">
      <children/>
      <hierarchy name="autogen_tree3.obj" locked="0" hidden="0"/>
      <point latitude="39.633767739" longitude="-86.094427596" heading="0.0"/>
      <obj_placement custom_msl="0" msl="0.0" resource="lib/g10/forests/autogen_tree3.obj" show_level="1 Default"/>
    </object>
    <object class="WED_AirportNode" id="44" parent_id="22">
      <children/>
      <hierarchy name="unnamed entity" locked="0" hidden="0"/>
      <point latitude="39.632271060" longitude="-86.088638920" split="0" ctrl_latitude_lo="0.0" ctrl_longitude_lo="0.0" ctrl_latitude_hi="0.0" ctrl_longitude_hi="0.0"/>
      <markings/>
    </object>
    <object class="WED_SimpleBoundaryNode" id="1375" parent_id="1374">
      <children/>
      <hierarchy name="e1" locked="0" hidden="0"/>
      <point latitude="39.636307000" longitude="-86.098675000"/>
    </object>
    <object class="WED_AirportNode" id="45" parent_id="22">
      <children/>
      <hierarchy name="unnamed entity" locked="0" hidden="0"/>
      <point latitude="39.632403760" longitude="-86.088528650" split="0" ctrl_latitude_lo="-0.000065580" ctrl_longitude_lo="-0.000113960" ctrl_latitude_hi="0.000065580" ctrl_longitude_hi="0.000113960"/>
      <markings/>
    </object>
    <object class="WED_AirportNode" id="860" parent_id="859">
      <children/>
      <hierarchy name="unnamed entity" locked="0" hidden="0"/>
      <point latitude="39.621043690" longitude="-86.089571640" split="0" ctrl_latitude_lo="0.0" ctrl_longitude_lo="0.0" ctrl_latitude_hi="0.0" ctrl_longitude_hi="0.0"/>
      <markings>
        <marking value="Solid Yellow (Black)"/>
      </markings>
    </object>
    <object class="WED_ObjPlacement" id="1743" parent_id="1378">
      <children/>
      <hierarchy name="autogen_tree3.obj" locked="0" hidden="0"/>
      <point latitude="39.633286126" longitude="-86.094535363" heading="0.0"/>
      <obj_placement custom_msl="0" msl="0.0" resource="lib/g10/forests/autogen_tree3.obj" show_level="1 Default"/>
    </object>
    <object class="WED_AirportNode" id="437" parent_id="435">
      <children/>
      <hierarchy name="unnamed entity" locked="0" hidden="0"/>
      <point latitude="39.632780710" longitude="-86.089658410" split="1" ctrl_latitude_lo="-0.000001380" ctrl_longitude_lo="-0.000054730" ctrl_latitude_hi="-0.000000020" ctrl_longitude_hi="0.000027520"/>
      <markings/>
    </object>
    <object class="WED_AirportNode" id="46" parent_id="22">
      <children/>
      <hierarchy name="unnamed entity" locked="0" hidden="0"/>
      <point latitude="39.632506550" longitude="-86.088412990" split="0" ctrl_latitude_lo="0.0" ctrl_longitude_lo="0.0" ctrl_latitude_hi="0.0" ctrl_longitude_hi="0.0"/>
      <markings/>
    </object>
    <object class="WED_SimpleBoundaryNode" id="1369" parent_id="1368">
      <children/>
      <hierarchy name="e1" locked="0" hidden="0"/>
      <point latitude="39.617064000" longitude="-86.091066000"/>
    </object>
    <object class="WED_ObjPlacement" id="1736" parent_id="1378">
      <children/>
      <hierarchy name="autogen_tree3.obj" locked="0" hidden="0"/>
      <point latitude="39.631283856" longitude="-86.094656958" heading="0.0"/>
      <obj_placement custom_msl="0" msl="0.0" resource="lib/g10/forests/autogen_tree3.obj" show_level="1 Default"/>
    </object>
    <object class="WED_AirportNode" id="47" parent_id="22">
      <children/>
      <hierarchy name="unnamed entity" locked="0" hidden="0"/>
      <point latitude="39.633533330" longitude="-86.088391100" split="0" ctrl_latitude_lo="0.0" ctrl_longitude_lo="0.0" ctrl_latitude_hi="0.0" ctrl_longitude_hi="0.0"/>
      <markings/>
    </object>
    <object class="WED_AirportNode" id="1036" parent_id="1034">
      <children/>
      <hierarchy name="unnamed entity" locked="0" hidden="0"/>
      <point latitude="39.633822300" longitude="-86.088367490" split="0" ctrl_latitude_lo="0.000017640" ctrl_longitude_lo="-0.000026030" ctrl_latitude_hi="-0.000017640" ctrl_longitude_hi="0.000026030"/>
      <markings>
        <marking value="Double Solid Yellow (Black)"/>
      </markings>
    </object>
    <object class="WED_AirportNode" id="447" parent_id="440">
      <children/>
      <hierarchy name="unnamed entity" locked="0" hidden="0"/>
      <point latitude="39.632469400" longitude="-86.088915170" split="0" ctrl_latitude_lo="-0.000000700" ctrl_longitude_lo="-0.000034990" ctrl_latitude_hi="0.000000700" ctrl_longitude_hi="0.000034990"/>
      <markings/>
    </object>
    <object class="WED_AirportNode" id="48" parent_id="22">
      <children/>
      <hierarchy name="unnamed entity" locked="0" hidden="0"/>
      <point latitude="39.633723160" longitude="-86.088383590" split="0" ctrl_latitude_lo="0.0" ctrl_longitude_lo="0.0" ctrl_latitude_hi="0.0" ctrl_longitude_hi="0.0"/>
      <markings/>
    </object>
    <object class="WED_AirportNode" id="49" parent_id="22">
      <children/>
      <hierarchy name="unnamed entity" locked="0" hidden="0"/>
      <point latitude="39.633889290" longitude="-86.088377010" split="0" ctrl_latitude_lo="0.0" ctrl_longitude_lo="0.0" ctrl_latitude_hi="0.0" ctrl_longitude_hi="0.0"/>
      <markings/>
    </object>
    <object class="WED_AirportNode" id="928" parent_id="926">
      <children/>
      <hierarchy name="unnamed entity" locked="0" hidden="0"/>
      <point latitude="39.634343930" longitude="-86.087857310" split="0" ctrl_latitude_lo="0.0" ctrl_longitude_lo="0.0" ctrl_latitude_hi="0.0" ctrl_longitude_hi="0.0"/>
      <markings>
        <marking value="Solid Yellow (Black)"/>
      </markings>
    </object>
    <object class="WED_AirportNode" id="1038" parent_id="1034">
      <children/>
      <hierarchy name="unnamed entity" locked="0" hidden="0"/>
      <point latitude="39.633908110" longitude="-86.088243240" split="0" ctrl_latitude_lo="-0.000026990" ctrl_longitude_lo="-0.000003470" ctrl_latitude_hi="0.000026990" ctrl_longitude_hi="0.000003470"/>
      <markings>
        <marking value="Double Solid Yellow (Black)"/>
      </markings>
    </object>
    <object class="WED_AirportNode" id="441" parent_id="440">
      <children/>
      <hierarchy name="unnamed entity" locked="0" hidden="0"/>
      <point latitude="39.632454730" longitude="-86.088794820" split="0" ctrl_latitude_lo="0.000019840" ctrl_longitude_lo="-0.000033380" ctrl_latitude_hi="-0.000019840" ctrl_longitude_hi="0.000033380"/>
      <markings/>
    </object>
    <object class="WED_ObjPlacement" id="3804" parent_id="1378">
      <children/>
      <hierarchy name="autogen_tree2.obj" locked="0" hidden="0"/>
      <point latitude="39.641097791" longitude="-86.088708801" heading="210.96"/>
      <obj_placement custom_msl="0" msl="0.0" resource="lib/g10/forests/autogen_tree2.obj" show_level="1 Default"/>
    </object>
    <object class="WED_ObjPlacement" id="3501" parent_id="1378">
      <children/>
      <hierarchy name="autogen_tree2.obj" locked="0" hidden="0"/>
      <point latitude="39.625526913" longitude="-86.096798943" heading="0.0"/>
      <obj_placement custom_msl="0" msl="0.0" resource="lib/g10/forests/autogen_tree2.obj" show_level="1 Default"/>
    </object>
    <object class="WED_AirportNode" id="50" parent_id="22">
      <children/>
      <hierarchy name="unnamed entity" locked="0" hidden="0"/>
      <point latitude="39.634440040" longitude="-86.088370340" split="1" ctrl_latitude_lo="0.0" ctrl_longitude_lo="0.0" ctrl_latitude_hi="0.000025740" ctrl_longitude_hi="0.000002990"/>
      <markings/>
    </object>
    <object class="WED_ObjPlacement" id="2781" parent_id="1378">
      <children/>
      <hierarchy name="autogen_tree_any.obj" locked="0" hidden="0"/>
      <point latitude="39.639856565" longitude="-86.091405356" heading="71.56"/>
      <obj_placement custom_msl="0" msl="0.0" resource="lib/g10/forests/autogen_tree_any.obj" show_level="1 Default"/>
    </object>
    <object class="WED_AirportNode" id="51" parent_id="22">
      <children/>
      <hierarchy name="unnamed entity" locked="0" hidden="0"/>
      <point latitude="39.634480350" longitude="-86.088330600" split="0" ctrl_latitude_lo="0.0" ctrl_longitude_lo="0.0" ctrl_latitude_hi="0.0" ctrl_longitude_hi="0.0"/>
      <markings/>
    </object>
    <object class="WED_ObjPlacement" id="1954" parent_id="1378">
      <children/>
      <hierarchy name="autogen_tree3.obj" locked="0" hidden="0"/>
      <point latitude="39.635431926" longitude="-86.092771038" heading="0.0"/>
      <obj_placement custom_msl="0" msl="0.0" resource="lib/g10/forests/autogen_tree3.obj" show_level="1 Default"/>
    </object>
    <object class="WED_AirportChain" id="435" parent_id="21">
      <children>
        <child id="436"/>
        <child id="437"/>
        <child id="438"/>
        <child id="439"/>
      </children>
      <hierarchy name="unnamed entity" locked="0" hidden="0"/>
      <airport_chain closed="1"/>
    </object>
    <object class="WED_ObjPlacement" id="2774" parent_id="1378">
      <children/>
      <hierarchy name="autogen_tree_any.obj" locked="0" hidden="0"/>
      <point latitude="39.640442130" longitude="-86.089410716" heading="225.00"/>
      <obj_placement custom_msl="0" msl="0.0" resource="lib/g10/forests/autogen_tree_any.obj" show_level="1 Default"/>
    </object>
    <object class="WED_AirportNode" id="52" parent_id="22">
      <children/>
      <hierarchy name="unnamed entity" locked="0" hidden="0"/>
      <point latitude="39.634481160" longitude="-86.088557030" split="1" ctrl_latitude_lo="0.0" ctrl_longitude_lo="0.0" ctrl_latitude_hi="-0.000019750" ctrl_longitude_hi="0.000000690"/>
      <markings/>
    </object>
    <object class="WED_ObjPlacement" id="1447" parent_id="1378">
      <children/>
      <hierarchy name="united_states.obj" locked="0" hidden="0"/>
      <point latitude="39.630265793" longitude="-86.089797913" heading="0.0"/>
      <obj_placement custom_msl="0" msl="0.0" resource="opensceneryx/objects/furniture/flags/united_states.obj" show_level="1 Default"/>
    </object>
    <object class="WED_AirportNode" id="53" parent_id="22">
      <children/>
      <hierarchy name="unnamed entity" locked="0" hidden="0"/>
      <point latitude="39.634461380" longitude="-86.088569750" split="0" ctrl_latitude_lo="0.0" ctrl_longitude_lo="0.0" ctrl_latitude_hi="0.0" ctrl_longitude_hi="0.0"/>
      <markings/>
    </object>
    <object class="WED_AirportNode" id="932" parent_id="926">
      <children/>
      <hierarchy name="unnamed entity" locked="0" hidden="0"/>
      <point latitude="39.633832970" longitude="-86.088183550" split="1" ctrl_latitude_lo="0.0" ctrl_longitude_lo="0.0" ctrl_latitude_hi="-0.000099290" ctrl_longitude_hi="0.000000650"/>
      <markings>
        <marking value="Solid Yellow (Black)"/>
      </markings>
    </object>
    <object class="WED_ObjPlacement" id="1751" parent_id="1378">
      <children/>
      <hierarchy name="autogen_tree3.obj" locked="0" hidden="0"/>
      <point latitude="39.633773938" longitude="-86.093892100" heading="0.0"/>
      <obj_placement custom_msl="0" msl="0.0" resource="lib/g10/forests/autogen_tree3.obj" show_level="1 Default"/>
    </object>
    <object class="WED_ObjPlacement" id="3074" parent_id="1378">
      <children/>
      <hierarchy name="autogen_tree_any.obj" locked="0" hidden="0"/>
      <point latitude="39.643305104" longitude="-86.085964561" heading="225.00"/>
      <obj_placement custom_msl="0" msl="0.0" resource="lib/g10/forests/autogen_tree_any.obj" show_level="1 Default"/>
    </object>
    <object class="WED_AirportNode" id="445" parent_id="440">
      <children/>
      <hierarchy name="unnamed entity" locked="0" hidden="0"/>
      <point latitude="39.632188970" longitude="-86.088945420" split="0" ctrl_latitude_lo="0.0" ctrl_longitude_lo="0.0" ctrl_latitude_hi="0.0" ctrl_longitude_hi="0.0"/>
      <markings/>
    </object>
    <object class="WED_AirportNode" id="54" parent_id="22">
      <children/>
      <hierarchy name="unnamed entity" locked="0" hidden="0"/>
      <point latitude="39.634461360" longitude="-86.088699480" split="1" ctrl_latitude_lo="0.0" ctrl_longitude_lo="0.0" ctrl_latitude_hi="0.000001050" ctrl_longitude_hi="-0.000053380"/>
      <markings/>
    </object>
    <object class="WED_ObjPlacement" id="1441" parent_id="1378">
      <children/>
      <hierarchy name="magic_flood_10m_white.obj" locked="0" hidden="0"/>
      <point latitude="39.630607691" longitude="-86.090005818" heading="0.0"/>
      <obj_placement custom_msl="0" msl="0.0" resource="objects/magic_flood_10m_white.obj" show_level="1 Default"/>
    </object>
    <object class="WED_ObjPlacement" id="1744" parent_id="1378">
      <children/>
      <hierarchy name="autogen_tree3.obj" locked="0" hidden="0"/>
      <point latitude="39.633390555" longitude="-86.094425689" heading="0.0"/>
      <obj_placement custom_msl="0" msl="0.0" resource="lib/g10/forests/autogen_tree3.obj" show_level="1 Default"/>
    </object>
    <object class="WED_ObjPlacement" id="4006" parent_id="1378">
      <children/>
      <hierarchy name="StorSml6.obj" locked="0" hidden="0"/>
      <point latitude="39.625185016" longitude="-86.085925937" heading="358.23"/>
      <obj_placement custom_msl="0" msl="0.0" resource="lib/g10/US/industrial/light/StorSml6.obj" show_level="1 Default"/>
    </object>
    <object class="WED_ObjPlacement" id="2769" parent_id="1378">
      <children/>
      <hierarchy name="autogen_tree_any.obj" locked="0" hidden="0"/>
      <point latitude="39.640774968" longitude="-86.089131762" heading="246.42"/>
      <obj_placement custom_msl="0" msl="0.0" resource="lib/g10/forests/autogen_tree_any.obj" show_level="1 Default"/>
    </object>
    <object class="WED_AirportNode" id="55" parent_id="22">
      <children/>
      <hierarchy name="unnamed entity" locked="0" hidden="0"/>
      <point latitude="39.634479870" longitude="-86.088746780" split="0" ctrl_latitude_lo="0.0" ctrl_longitude_lo="0.0" ctrl_latitude_hi="0.0" ctrl_longitude_hi="0.0"/>
      <markings/>
    </object>
    <object class="WED_AirportChain" id="1044" parent_id="9">
      <children>
        <child id="1045"/>
        <child id="1046"/>
        <child id="1047"/>
        <child id="1048"/>
        <child id="1049"/>
        <child id="1050"/>
        <child id="1051"/>
        <child id="1052"/>
        <child id="1053"/>
      </children>
      <hierarchy name="Linear Feature 8" locked="0" hidden="0"/>
      <airport_chain closed="0"/>
    </object>
    <object class="WED_AirportNode" id="391" parent_id="389">
      <children/>
      <hierarchy name="unnamed entity" locked="0" hidden="0"/>
      <point latitude="39.632529090" longitude="-86.089258390" split="0" ctrl_latitude_lo="0.000002100" ctrl_longitude_lo="0.000044930" ctrl_latitude_hi="-0.000002100" ctrl_longitude_hi="-0.000044930"/>
      <markings/>
    </object>
    <object class="WED_ObjPlacement" id="3499" parent_id="1378">
      <children/>
      <hierarchy name="autogen_tree2.obj" locked="0" hidden="0"/>
      <point latitude="39.625637541" longitude="-86.097647726" heading="0.0"/>
      <obj_placement custom_msl="0" msl="0.0" resource="lib/g10/forests/autogen_tree2.obj" show_level="1 Default"/>
    </object>
    <object class="WED_ObjPlacement" id="2778" parent_id="1378">
      <children/>
      <hierarchy name="autogen_tree_any.obj" locked="0" hidden="0"/>
      <point latitude="39.640006771" longitude="-86.090868429" heading="0.0"/>
      <obj_placement custom_msl="0" msl="0.0" resource="lib/g10/forests/autogen_tree_any.obj" show_level="1 Default"/>
    </object>
    <object class="WED_AirportNode" id="56" parent_id="22">
      <children/>
      <hierarchy name="unnamed entity" locked="0" hidden="0"/>
      <point latitude="39.634593820" longitude="-86.088744180" split="0" ctrl_latitude_lo="0.0" ctrl_longitude_lo="0.0" ctrl_latitude_hi="0.0" ctrl_longitude_hi="0.0"/>
      <markings/>
    </object>
    <object class="WED_ObjPlacement" id="3803" parent_id="1378">
      <children/>
      <hierarchy name="autogen_tree2.obj" locked="0" hidden="0"/>
      <point latitude="39.641001469" longitude="-86.088894293" heading="223.26"/>
      <obj_placement custom_msl="0" msl="0.0" resource="lib/g10/forests/autogen_tree2.obj" show_level="1 Default"/>
    </object>
    <object class="WED_AirportNode" id="57" parent_id="22">
      <children/>
      <hierarchy name="unnamed entity" locked="0" hidden="0"/>
      <point latitude="39.634594850" longitude="-86.088885140" split="0" ctrl_latitude_lo="0.0" ctrl_longitude_lo="0.0" ctrl_latitude_hi="0.0" ctrl_longitude_hi="0.0"/>
      <markings/>
    </object>
    <object class="WED_AirportNode" id="936" parent_id="935">
      <children/>
      <hierarchy name="unnamed entity" locked="0" hidden="0"/>
      <point latitude="39.633724650" longitude="-86.088033230" split="0" ctrl_latitude_lo="0.0" ctrl_longitude_lo="0.0" ctrl_latitude_hi="0.0" ctrl_longitude_hi="0.0"/>
      <markings>
        <marking value="Solid Yellow (Black)"/>
      </markings>
    </object>
    <object class="WED_AirportNode" id="1046" parent_id="1044">
      <children/>
      <hierarchy name="unnamed entity" locked="0" hidden="0"/>
      <point latitude="39.631449210" longitude="-86.088405630" split="0" ctrl_latitude_lo="-0.000006420" ctrl_longitude_lo="-0.000042480" ctrl_latitude_hi="0.000006420" ctrl_longitude_hi="0.000042480"/>
      <markings>
        <marking value="Double Solid Yellow (Black)"/>
      </markings>
    </object>
    <object class="WED_AirportNode" id="385" parent_id="384">
      <children/>
      <hierarchy name="unnamed entity" locked="0" hidden="0"/>
      <point latitude="39.632597450" longitude="-86.089435140" split="0" ctrl_latitude_lo="0.0" ctrl_longitude_lo="0.0" ctrl_latitude_hi="0.0" ctrl_longitude_hi="0.0"/>
      <markings/>
    </object>
    <object class="WED_AirportNode" id="58" parent_id="22">
      <children/>
      <hierarchy name="unnamed entity" locked="0" hidden="0"/>
      <point latitude="39.634715530" longitude="-86.088882310" split="1" ctrl_latitude_lo="0.0" ctrl_longitude_lo="0.0" ctrl_latitude_hi="-0.000002860" ctrl_longitude_hi="-0.000026410"/>
      <markings/>
    </object>
    <object class="WED_AirportNode" id="59" parent_id="22">
      <children/>
      <hierarchy name="unnamed entity" locked="0" hidden="0"/>
      <point latitude="39.634696210" longitude="-86.088952570" split="1" ctrl_latitude_lo="0.000007810" ctrl_longitude_lo="0.000017590" ctrl_latitude_hi="-0.000027350" ctrl_longitude_hi="-0.000061600"/>
      <markings/>
    </object>
    <object class="WED_ObjPlacement" id="1962" parent_id="1378">
      <children/>
      <hierarchy name="autogen_tree3.obj" locked="0" hidden="0"/>
      <point latitude="39.634631304" longitude="-86.089830816" heading="90.00"/>
      <obj_placement custom_msl="0" msl="0.0" resource="lib/g10/forests/autogen_tree3.obj" show_level="1 Default"/>
    </object>
    <object class="WED_ObjPlacement" id="3080" parent_id="1378">
      <children/>
      <hierarchy name="autogen_tree_any.obj" locked="0" hidden="0"/>
      <point latitude="39.643444820" longitude="-86.085539216" heading="0.0"/>
      <obj_placement custom_msl="0" msl="0.0" resource="lib/g10/forests/autogen_tree_any.obj" show_level="1 Default"/>
    </object>
    <object class="WED_AirportNode" id="443" parent_id="440">
      <children/>
      <hierarchy name="unnamed entity" locked="0" hidden="0"/>
      <point latitude="39.632236910" longitude="-86.088763250" split="1" ctrl_latitude_lo="0.0" ctrl_longitude_lo="0.0" ctrl_latitude_hi="-0.000038730" ctrl_longitude_hi="-0.000011460"/>
      <markings/>
    </object>
    <object class="WED_AirportNode" id="60" parent_id="22">
      <children/>
      <hierarchy name="unnamed entity" locked="0" hidden="0"/>
      <point latitude="39.634598060" longitude="-86.089089410" split="0" ctrl_latitude_lo="0.000052050" ctrl_longitude_lo="0.000050830" ctrl_latitude_hi="-0.000052050" ctrl_longitude_hi="-0.000050830"/>
      <markings/>
    </object>
    <object class="WED_ObjPlacement" id="1455" parent_id="1378">
      <children/>
      <hierarchy name="car_static.obj" locked="0" hidden="0"/>
      <point latitude="39.634528782" longitude="-86.085291733" heading="286.03"/>
      <obj_placement custom_msl="0" msl="0.0" resource="lib/cars/car_static.obj" show_level="1 Default"/>
    </object>
    <object class="WED_AirportNode" id="61" parent_id="22">
      <children/>
      <hierarchy name="unnamed entity" locked="0" hidden="0"/>
      <point latitude="39.634461430" longitude="-86.089127510" split="0" ctrl_latitude_lo="0.0" ctrl_longitude_lo="0.0" ctrl_latitude_hi="0.0" ctrl_longitude_hi="0.0"/>
      <markings/>
    </object>
    <object class="WED_AirportNode" id="940" parent_id="939">
      <children/>
      <hierarchy name="unnamed entity" locked="0" hidden="0"/>
      <point latitude="39.626275030" longitude="-86.088275910" split="0" ctrl_latitude_lo="0.0" ctrl_longitude_lo="0.0" ctrl_latitude_hi="0.0" ctrl_longitude_hi="0.0"/>
      <markings>
        <marking value="Solid Yellow (Black)"/>
      </markings>
    </object>
    <object class="WED_ObjPlacement" id="1759" parent_id="1378">
      <children/>
      <hierarchy name="autogen_tree3.obj" locked="0" hidden="0"/>
      <point latitude="39.617657549" longitude="-86.089232376" heading="0.0"/>
      <obj_placement custom_msl="0" msl="0.0" resource="lib/g10/forests/autogen_tree3.obj" show_level="1 Default"/>
    </object>
    <object class="WED_AirportChain" id="389" parent_id="21">
      <children>
        <child id="390"/>
        <child id="391"/>
        <child id="392"/>
        <child id="393"/>
      </children>
      <hierarchy name="unnamed entity" locked="0" hidden="0"/>
      <airport_chain closed="1"/>
    </object>
    <object class="WED_AirportNode" id="62" parent_id="22">
      <children/>
      <hierarchy name="unnamed entity" locked="0" hidden="0"/>
      <point latitude="39.634461780" longitude="-86.089182050" split="0" ctrl_latitude_lo="0.0" ctrl_longitude_lo="0.0" ctrl_latitude_hi="0.0" ctrl_longitude_hi="0.0"/>
      <markings/>
    </object>
    <object class="WED_ObjPlacement" id="1449" parent_id="1378">
      <children/>
      <hierarchy name="car_static.obj" locked="0" hidden="0"/>
      <point latitude="39.634463455" longitude="-86.090920405" heading="0.0"/>
      <obj_placement custom_msl="0" msl="0.0" resource="lib/cars/car_static.obj" show_level="1 Default"/>
    </object>
    <object class="WED_ObjPlacement" id="1752" parent_id="1378">
      <children/>
      <hierarchy name="autogen_tree3.obj" locked="0" hidden="0"/>
      <point latitude="39.633763447" longitude="-86.094270714" heading="0.0"/>
      <obj_placement custom_msl="0" msl="0.0" resource="lib/g10/forests/autogen_tree3.obj" show_level="1 Default"/>
    </object>
    <object class="WED_AirportNode" id="63" parent_id="22">
      <children/>
      <hierarchy name="unnamed entity" locked="0" hidden="0"/>
      <point latitude="39.634409130" longitude="-86.089183700" split="0" ctrl_latitude_lo="0.0" ctrl_longitude_lo="0.0" ctrl_latitude_hi="0.0" ctrl_longitude_hi="0.0"/>
      <markings/>
    </object>
    <object class="WED_TruckParkingLocation" id="1116" parent_id="7">
      <children/>
      <hierarchy name="100LL Truck" locked="0" hidden="0"/>
      <point latitude="39.631002860" longitude="-86.089490010" heading="187.30"/>
      <truck_parking_spot type="Fuel Truck (Props)" number_of_cars="0"/>
    </object>
    <object class="WED_AirportChain" id="463" parent_id="21">
      <children>
        <child id="464"/>
        <child id="465"/>
        <child id="466"/>
        <child id="467"/>
      </children>
      <hierarchy name="unnamed entity" locked="0" hidden="0"/>
      <airport_chain closed="1"/>
    </object>
    <object class="WED_ObjPlacement" id="1837" parent_id="1378">
      <children/>
      <hierarchy name="autogen_tree3.obj" locked="0" hidden="0"/>
      <point latitude="39.616172179" longitude="-86.088567655" heading="0.0"/>
      <obj_placement custom_msl="0" msl="0.0" resource="lib/g10/forests/autogen_tree3.obj" show_level="1 Default"/>
    </object>
    <object class="WED_AirportNode" id="64" parent_id="22">
      <children/>
      <hierarchy name="unnamed entity" locked="0" hidden="0"/>
      <point latitude="39.634409160" longitude="-86.089031630" split="1" ctrl_latitude_lo="0.0" ctrl_longitude_lo="0.0" ctrl_latitude_hi="-0.000014610" ctrl_longitude_hi="0.000000550"/>
      <markings/>
    </object>
    <object class="WED_TaxiRouteNode" id="1118" parent_id="13">
      <viewers>
        <viewer id="1276"/>
        <viewer id="1293"/>
        <viewer id="1294"/>
      </viewers>
      <children/>
      <hierarchy name="Crew Vehicles_stop" locked="0" hidden="0"/>
      <point latitude="39.630040420" longitude="-86.089639160"/>
    </object>
    <object class="WED_AirportNode" id="457" parent_id="456">
      <children/>
      <hierarchy name="unnamed entity" locked="0" hidden="0"/>
      <point latitude="39.631749200" longitude="-86.088944940" split="0" ctrl_latitude_lo="0.0" ctrl_longitude_lo="0.0" ctrl_latitude_hi="0.0" ctrl_longitude_hi="0.0"/>
      <markings/>
    </object>
    <object class="WED_ObjPlacement" id="3581" parent_id="1378">
      <children/>
      <hierarchy name="autogen_tree2.obj" locked="0" hidden="0"/>
      <point latitude="39.624875067" longitude="-86.083526455" heading="0.0"/>
      <obj_placement custom_msl="0" msl="0.0" resource="lib/g10/forests/autogen_tree2.obj" show_level="1 Default"/>
    </object>
    <object class="WED_AirportNode" id="66" parent_id="22">
      <children/>
      <hierarchy name="unnamed entity" locked="0" hidden="0"/>
      <point latitude="39.634235890" longitude="-86.089509230" split="0" ctrl_latitude_lo="0.0" ctrl_longitude_lo="0.0" ctrl_latitude_hi="0.0" ctrl_longitude_hi="0.0"/>
      <markings/>
    </object>
    <object class="WED_AirportNode" id="67" parent_id="22">
      <children/>
      <hierarchy name="unnamed entity" locked="0" hidden="0"/>
      <point latitude="39.634192440" longitude="-86.089512530" split="0" ctrl_latitude_lo="0.0" ctrl_longitude_lo="0.0" ctrl_latitude_hi="0.0" ctrl_longitude_hi="0.0"/>
      <markings/>
    </object>
    <object class="WED_ObjPlacement" id="2034" parent_id="1378">
      <children/>
      <hierarchy name="autogen_tree4.obj" locked="0" hidden="0"/>
      <point latitude="39.624017700" longitude="-86.095209144" heading="0.0"/>
      <obj_placement custom_msl="0" msl="0.0" resource="lib/g10/forests/autogen_tree4.obj" show_level="1 Default"/>
    </object>
    <object class="WED_AirportNode" id="451" parent_id="448">
      <children/>
      <hierarchy name="unnamed entity" locked="0" hidden="0"/>
      <point latitude="39.632073060" longitude="-86.088799860" split="0" ctrl_latitude_lo="0.000018200" ctrl_longitude_lo="-0.000023880" ctrl_latitude_hi="-0.000018200" ctrl_longitude_hi="0.000023880"/>
      <markings/>
    </object>
    <object class="WED_AirportNode" id="68" parent_id="22">
      <children/>
      <hierarchy name="unnamed entity" locked="0" hidden="0"/>
      <point latitude="39.634193010" longitude="-86.089458240" split="0" ctrl_latitude_lo="0.0" ctrl_longitude_lo="0.0" ctrl_latitude_hi="0.0" ctrl_longitude_hi="0.0"/>
      <markings/>
    </object>
    <object class="WED_ObjPlacement" id="1527" parent_id="1378">
      <children/>
      <hierarchy name="car_static.obj" locked="0" hidden="0"/>
      <point latitude="39.631095502" longitude="-86.092335203" heading="180.00"/>
      <obj_placement custom_msl="0" msl="0.0" resource="lib/cars/car_static.obj" show_level="1 Default"/>
    </object>
    <object class="WED_AirportNode" id="69" parent_id="22">
      <children/>
      <hierarchy name="unnamed entity" locked="0" hidden="0"/>
      <point latitude="39.634181750" longitude="-86.089430270" split="0" ctrl_latitude_lo="0.000013640" ctrl_longitude_lo="-0.000014140" ctrl_latitude_hi="-0.000013640" ctrl_longitude_hi="0.000014140"/>
      <markings/>
    </object>
    <object class="WED_AirportNode" id="1012" parent_id="1008">
      <children/>
      <hierarchy name="unnamed entity" locked="0" hidden="0"/>
      <point latitude="39.630555050" longitude="-86.089525170" split="0" ctrl_latitude_lo="0.0" ctrl_longitude_lo="0.0" ctrl_latitude_hi="0.0" ctrl_longitude_hi="0.0"/>
      <markings>
        <marking value="Solid Yellow"/>
      </markings>
    </object>
    <object class="WED_ObjPlacement" id="3154" parent_id="1378">
      <children/>
      <hierarchy name="autogen_tree_any.obj" locked="0" hidden="0"/>
      <point latitude="39.641914149" longitude="-86.087011234" heading="11.69"/>
      <obj_placement custom_msl="0" msl="0.0" resource="lib/g10/forests/autogen_tree_any.obj" show_level="1 Default"/>
    </object>
    <object class="WED_ObjPlacement" id="2851" parent_id="1378">
      <children/>
      <hierarchy name="autogen_tree_any.obj" locked="0" hidden="0"/>
      <point latitude="39.640598058" longitude="-86.091690986" heading="243.43"/>
      <obj_placement custom_msl="0" msl="0.0" resource="lib/g10/forests/autogen_tree_any.obj" show_level="1 Default"/>
    </object>
    <object class="WED_AirportNode" id="461" parent_id="456">
      <children/>
      <hierarchy name="unnamed entity" locked="0" hidden="0"/>
      <point latitude="39.631448970" longitude="-86.088844610" split="1" ctrl_latitude_lo="0.000004180" ctrl_longitude_lo="0.000068270" ctrl_latitude_hi="0.0" ctrl_longitude_hi="0.0"/>
      <markings/>
    </object>
    <object class="WED_AirportNode" id="70" parent_id="22">
      <children/>
      <hierarchy name="unnamed entity" locked="0" hidden="0"/>
      <point latitude="39.634135550" longitude="-86.089421240" split="0" ctrl_latitude_lo="0.0" ctrl_longitude_lo="0.0" ctrl_latitude_hi="0.0" ctrl_longitude_hi="0.0"/>
      <markings/>
    </object>
    <object class="WED_ObjPlacement" id="1521" parent_id="1378">
      <children/>
      <hierarchy name="car_static.obj" locked="0" hidden="0"/>
      <point latitude="39.631225681" longitude="-86.092119192" heading="357.80"/>
      <obj_placement custom_msl="0" msl="0.0" resource="lib/cars/car_static.obj" show_level="1 Default"/>
    </object>
    <object class="WED_SimpleBoundaryNode" id="4086" parent_id="4084">
      <children/>
      <hierarchy name="Point 0/1" locked="0" hidden="0"/>
      <point latitude="39.634263657" longitude="-86.087834745"/>
    </object>
    <object class="WED_AirportNode" id="71" parent_id="22">
      <children/>
      <hierarchy name="unnamed entity" locked="0" hidden="0"/>
      <point latitude="39.634135960" longitude="-86.089386970" split="0" ctrl_latitude_lo="0.0" ctrl_longitude_lo="0.0" ctrl_latitude_hi="0.0" ctrl_longitude_hi="0.0"/>
      <markings/>
    </object>
    <object class="WED_TaxiRouteNode" id="1188" parent_id="13">
      <viewers>
        <viewer id="1251"/>
        <viewer id="1252"/>
        <viewer id="1268"/>
      </viewers>
      <children/>
      <hierarchy name="A_stop" locked="0" hidden="0"/>
      <point latitude="39.630438180" longitude="-86.088403000"/>
    </object>
    <object class="WED_AirportNode" id="471" parent_id="468">
      <children/>
      <hierarchy name="unnamed entity" locked="0" hidden="0"/>
      <point latitude="39.632054900" longitude="-86.089768310" split="0" ctrl_latitude_lo="0.0" ctrl_longitude_lo="0.0" ctrl_latitude_hi="0.0" ctrl_longitude_hi="0.0"/>
      <markings/>
    </object>
    <object class="WED_ObjPlacement" id="1845" parent_id="1378">
      <children/>
      <hierarchy name="autogen_tree3.obj" locked="0" hidden="0"/>
      <point latitude="39.616225586" longitude="-86.090114538" heading="0.0"/>
      <obj_placement custom_msl="0" msl="0.0" resource="lib/g10/forests/autogen_tree3.obj" show_level="1 Default"/>
    </object>
    <object class="WED_ObjPlacement" id="3579" parent_id="1378">
      <children/>
      <hierarchy name="autogen_tree2.obj" locked="0" hidden="0"/>
      <point latitude="39.624847410" longitude="-86.084053845" heading="0.0"/>
      <obj_placement custom_msl="0" msl="0.0" resource="lib/g10/forests/autogen_tree2.obj" show_level="1 Default"/>
    </object>
    <object class="WED_AirportNode" id="72" parent_id="22">
      <children/>
      <hierarchy name="unnamed entity" locked="0" hidden="0"/>
      <point latitude="39.634193380" longitude="-86.089362010" split="0" ctrl_latitude_lo="-0.000001080" ctrl_longitude_lo="-0.000027280" ctrl_latitude_hi="0.000001080" ctrl_longitude_hi="0.000027280"/>
      <markings/>
    </object>
    <object class="WED_AirportNode" id="73" parent_id="22">
      <children/>
      <hierarchy name="unnamed entity" locked="0" hidden="0"/>
      <point latitude="39.634195340" longitude="-86.089250580" split="0" ctrl_latitude_lo="0.000001480" ctrl_longitude_lo="-0.000037370" ctrl_latitude_hi="-0.000001480" ctrl_longitude_hi="0.000037370"/>
      <markings/>
    </object>
    <object class="WED_AirportNode" id="1016" parent_id="1015">
      <children/>
      <hierarchy name="unnamed entity" locked="0" hidden="0"/>
      <point latitude="39.634037380" longitude="-86.087052130" split="0" ctrl_latitude_lo="-0.000015370" ctrl_longitude_lo="0.000003180" ctrl_latitude_hi="0.000015370" ctrl_longitude_hi="-0.000003180"/>
      <markings>
        <marking value="Double Solid Yellow (Black)"/>
      </markings>
    </object>
    <object class="WED_ObjPlacement" id="2871" parent_id="1378">
      <children/>
      <hierarchy name="autogen_tree_any.obj" locked="0" hidden="0"/>
      <point latitude="39.639921416" longitude="-86.091698138" heading="0.0"/>
      <obj_placement custom_msl="0" msl="0.0" resource="lib/g10/forests/autogen_tree_any.obj" show_level="1 Default"/>
    </object>
    <object class="WED_TaxiRouteNode" id="1190" parent_id="13">
      <viewers>
        <viewer id="1253"/>
        <viewer id="1254"/>
      </viewers>
      <children/>
      <hierarchy name="A_stop" locked="0" hidden="0"/>
      <point latitude="39.631191590" longitude="-86.088271000"/>
    </object>
    <object class="WED_AirportNode" id="465" parent_id="463">
      <children/>
      <hierarchy name="unnamed entity" locked="0" hidden="0"/>
      <point latitude="39.631707170" longitude="-86.089768740" split="0" ctrl_latitude_lo="0.0" ctrl_longitude_lo="0.0" ctrl_latitude_hi="0.0" ctrl_longitude_hi="0.0"/>
      <markings/>
    </object>
    <object class="WED_AirportNode" id="74" parent_id="22">
      <children/>
      <hierarchy name="unnamed entity" locked="0" hidden="0"/>
      <point latitude="39.634148480" longitude="-86.089220370" split="0" ctrl_latitude_lo="0.0" ctrl_longitude_lo="0.0" ctrl_latitude_hi="0.0" ctrl_longitude_hi="0.0"/>
      <markings/>
    </object>
    <object class="WED_AirportNode" id="75" parent_id="22">
      <children/>
      <hierarchy name="unnamed entity" locked="0" hidden="0"/>
      <point latitude="39.634148420" longitude="-86.089185010" split="0" ctrl_latitude_lo="0.0" ctrl_longitude_lo="0.0" ctrl_latitude_hi="0.0" ctrl_longitude_hi="0.0"/>
      <markings/>
    </object>
    <object class="WED_ObjPlacement" id="2042" parent_id="1378">
      <children/>
      <hierarchy name="autogen_tree4.obj" locked="0" hidden="0"/>
      <point latitude="39.624063001" longitude="-86.093948367" heading="0.0"/>
      <obj_placement custom_msl="0" msl="0.0" resource="lib/g10/forests/autogen_tree4.obj" show_level="1 Default"/>
    </object>
    <object class="WED_ObjPlacement" id="3881" parent_id="1378">
      <children/>
      <hierarchy name="autogen_tree2.obj" locked="0" hidden="0"/>
      <point latitude="39.640563249" longitude="-86.088607710" heading="37.65"/>
      <obj_placement custom_msl="0" msl="0.0" resource="lib/g10/forests/autogen_tree2.obj" show_level="1 Default"/>
    </object>
    <object class="WED_ObjPlacement" id="3160" parent_id="1378">
      <children/>
      <hierarchy name="autogen_tree_any.obj" locked="0" hidden="0"/>
      <point latitude="39.640813115" longitude="-86.087492370" heading="42.70"/>
      <obj_placement custom_msl="0" msl="0.0" resource="lib/g10/forests/autogen_tree_any.obj" show_level="1 Default"/>
    </object>
    <object class="WED_AirportNode" id="459" parent_id="456">
      <children/>
      <hierarchy name="unnamed entity" locked="0" hidden="0"/>
      <point latitude="39.631712160" longitude="-86.088773150" split="0" ctrl_latitude_lo="0.0" ctrl_longitude_lo="0.0" ctrl_latitude_hi="0.0" ctrl_longitude_hi="0.0"/>
      <markings/>
    </object>
    <object class="WED_AirportNode" id="76" parent_id="22">
      <children/>
      <hierarchy name="unnamed entity" locked="0" hidden="0"/>
      <point latitude="39.634193830" longitude="-86.089166270" split="0" ctrl_latitude_lo="0.000000370" ctrl_longitude_lo="-0.000017310" ctrl_latitude_hi="-0.000000370" ctrl_longitude_hi="0.000017310"/>
      <markings/>
    </object>
    <object class="WED_ObjPlacement" id="1535" parent_id="1378">
      <children/>
      <hierarchy name="car_static.obj" locked="0" hidden="0"/>
      <point latitude="39.630489910" longitude="-86.092534524" heading="180.00"/>
      <obj_placement custom_msl="0" msl="0.0" resource="lib/cars/car_static.obj" show_level="1 Default"/>
    </object>
    <object class="WED_AirportNode" id="77" parent_id="22">
      <children/>
      <hierarchy name="unnamed entity" locked="0" hidden="0"/>
      <point latitude="39.634195000" longitude="-86.089044310" split="0" ctrl_latitude_lo="0.000000110" ctrl_longitude_lo="-0.000027310" ctrl_latitude_hi="-0.000000110" ctrl_longitude_hi="0.000027310"/>
      <markings/>
    </object>
    <object class="WED_AirportNode" id="1020" parent_id="1015">
      <children/>
      <hierarchy name="unnamed entity" locked="0" hidden="0"/>
      <point latitude="39.634237340" longitude="-86.087327370" split="0" ctrl_latitude_lo="-0.000004900" ctrl_longitude_lo="0.000046570" ctrl_latitude_hi="0.000004900" ctrl_longitude_hi="-0.000046570"/>
      <markings>
        <marking value="Double Solid Yellow (Black)"/>
      </markings>
    </object>
    <object class="WED_AirportNode" id="469" parent_id="468">
      <children/>
      <hierarchy name="unnamed entity" locked="0" hidden="0"/>
      <point latitude="39.631906790" longitude="-86.089868600" split="0" ctrl_latitude_lo="0.0" ctrl_longitude_lo="0.0" ctrl_latitude_hi="0.0" ctrl_longitude_hi="0.0"/>
      <markings/>
    </object>
    <object class="WED_AirportNode" id="78" parent_id="22">
      <children/>
      <hierarchy name="unnamed entity" locked="0" hidden="0"/>
      <point latitude="39.634145300" longitude="-86.089020860" split="0" ctrl_latitude_lo="0.0" ctrl_longitude_lo="0.0" ctrl_latitude_hi="0.0" ctrl_longitude_hi="0.0"/>
      <markings/>
    </object>
    <object class="WED_ObjPlacement" id="1529" parent_id="1378">
      <children/>
      <hierarchy name="car_static.obj" locked="0" hidden="0"/>
      <point latitude="39.631092164" longitude="-86.092403391" heading="180.97"/>
      <obj_placement custom_msl="0" msl="0.0" resource="lib/cars/car_static.obj" show_level="1 Default"/>
    </object>
    <object class="WED_AirportNode" id="79" parent_id="22">
      <children/>
      <hierarchy name="unnamed entity" locked="0" hidden="0"/>
      <point latitude="39.634146200" longitude="-86.088973090" split="0" ctrl_latitude_lo="0.0" ctrl_longitude_lo="0.0" ctrl_latitude_hi="0.0" ctrl_longitude_hi="0.0"/>
      <markings/>
    </object>
    <object class="WED_TaxiRouteNode" id="1196" parent_id="13">
      <viewers>
        <viewer id="1259"/>
        <viewer id="1260"/>
      </viewers>
      <children/>
      <hierarchy name="A_stop" locked="0" hidden="0"/>
      <point latitude="39.633799150" longitude="-86.087820280"/>
    </object>
    <object class="WED_AirportChain" id="479" parent_id="21">
      <children>
        <child id="480"/>
        <child id="481"/>
        <child id="482"/>
        <child id="483"/>
      </children>
      <hierarchy name="unnamed entity" locked="0" hidden="0"/>
      <airport_chain closed="1"/>
    </object>
    <object class="WED_ObjPlacement" id="1853" parent_id="1378">
      <children/>
      <hierarchy name="autogen_tree3.obj" locked="0" hidden="0"/>
      <point latitude="39.617425326" longitude="-86.087532425" heading="0.0"/>
      <obj_placement custom_msl="0" msl="0.0" resource="lib/g10/forests/autogen_tree3.obj" show_level="1 Default"/>
    </object>
    <object class="WED_AirportNode" id="80" parent_id="22">
      <children/>
      <hierarchy name="unnamed entity" locked="0" hidden="0"/>
      <point latitude="39.634195250" longitude="-86.088950080" split="0" ctrl_latitude_lo="-0.000000680" ctrl_longitude_lo="-0.000026830" ctrl_latitude_hi="0.000000680" ctrl_longitude_hi="0.000026830"/>
      <markings/>
    </object>
    <object class="WED_AirportChain" id="801" parent_id="9">
      <children>
        <child id="802"/>
        <child id="803"/>
        <child id="804"/>
      </children>
      <hierarchy name="Linear Feature 28" locked="0" hidden="0"/>
      <airport_chain closed="0"/>
    </object>
    <object class="WED_TaxiRoute" id="1318" parent_id="14">
      <sources>
        <source id="1163"/>
        <source id="1207"/>
      </sources>
      <children/>
      <hierarchy name="" locked="0" hidden="0"/>
      <edge ctrl_latitude_lo="0.0" ctrl_longitude_lo="0.0" ctrl_latitude_hi="0.0" ctrl_longitude_hi="0.0"/>
      <taxi_route vehicle_class="Ground Trucks" oneway="0" runway="None" width="E"/>
      <departures/>
      <arrivals/>
      <ils_holds/>
    </object>
    <object class="WED_AirportNode" id="81" parent_id="22">
      <children/>
      <hierarchy name="unnamed entity" locked="0" hidden="0"/>
